[{"country_code":"AW","lat":12.5,"lng":-69.96666666,"name":"Aruba","tz":"America\/Aruba"},{"country_code":"AF","lat":33,"lng":65,"name":"Afghanistan","tz":"Asia\/Kabul"},{"country_code":"AO","lat":-12.5,"lng":18.5,"name":"Angola","tz":"Africa\/Luanda"},{"country_code":"AI","lat":18.25,"lng":-63.16666666,"name":"Anguilla","tz":"America\/Anguilla"},{"country_code":"AX","lat":60.116667,"lng":19.9,"name":"Åland Islands","tz":"Europe\/Mariehamn"},{"country_code":"AL","lat":41,"lng":20,"name":"Albania","tz":"Europe\/Tirane"},{"country_code":"AD","lat":42.5,"lng":1.5,"name":"Andorra","tz":"Europe\/Andorra"},{"country_code":"AE","lat":24,"lng":54,"name":"United Arab Emirates","tz":"Asia\/Dubai"},{"country_code":"AR","lat":-34,"lng":-64,"name":"Argentina","tz":"America\/Argentina\/Buenos_Aires"},{"country_code":"AM","lat":40,"lng":45,"name":"Armenia","tz":"Asia\/Yerevan"},{"country_code":"AS","lat":-14.33333333,"lng":-170,"name":"American Samoa","tz":"Pacific\/Pago_Pago"},{"country_code":"AQ","lat":-90,"lng":0,"name":"Antarctica","tz":"Antarctica\/McMurdo"},{"country_code":"TF","lat":-49.25,"lng":69.167,"name":"French Southern and Antarctic Lands","tz":"Indian\/Kerguelen"},{"country_code":"AG","lat":17.05,"lng":-61.8,"name":"Antigua and Barbuda","tz":"America\/Antigua"},{"country_code":"AU","lat":-27,"lng":133,"name":"Australia","tz":"Australia\/Lord_Howe"},{"country_code":"AT","lat":47.33333333,"lng":13.33333333,"name":"Austria","tz":"Europe\/Vienna"},{"country_code":"AZ","lat":40.5,"lng":47.5,"name":"Azerbaijan","tz":"Asia\/Baku"},{"country_code":"BI","lat":-3.5,"lng":30,"name":"Burundi","tz":"Africa\/Bujumbura"},{"country_code":"BE","lat":50.83333333,"lng":4,"name":"Belgium","tz":"Europe\/Brussels"},{"country_code":"BJ","lat":9.5,"lng":2.25,"name":"Benin","tz":"Africa\/Porto-Novo"},{"country_code":"BF","lat":13,"lng":-2,"name":"Burkina Faso","tz":"Africa\/Ouagadougou"},{"country_code":"BD","lat":24,"lng":90,"name":"Bangladesh","tz":"Asia\/Dhaka"},{"country_code":"BG","lat":43,"lng":25,"name":"Bulgaria","tz":"Europe\/Sofia"},{"country_code":"BH","lat":26,"lng":50.55,"name":"Bahrain","tz":"Asia\/Bahrain"},{"country_code":"BS","lat":24.25,"lng":-76,"name":"Bahamas","tz":"America\/Nassau"},{"country_code":"BA","lat":44,"lng":18,"name":"Bosnia and Herzegovina","tz":"Europe\/Sarajevo"},{"country_code":"BL","lat":18.5,"lng":-63.41666666,"name":"Saint Barthélemy","tz":"America\/St_Barthelemy"},{"country_code":"BY","lat":53,"lng":28,"name":"Belarus","tz":"Europe\/Minsk"},{"country_code":"BZ","lat":17.25,"lng":-88.75,"name":"Belize","tz":"America\/Belize"},{"country_code":"BM","lat":32.33333333,"lng":-64.75,"name":"Bermuda","tz":"Atlantic\/Bermuda"},{"country_code":"BO","lat":-17,"lng":-65,"name":"Bolivia","tz":"America\/La_Paz"},{"country_code":"BR","lat":-10,"lng":-55,"name":"Brazil","tz":"America\/Noronha"},{"country_code":"BB","lat":13.16666666,"lng":-59.53333333,"name":"Barbados","tz":"America\/Barbados"},{"country_code":"BN","lat":4.5,"lng":114.66666666,"name":"Brunei","tz":"Asia\/Brunei"},{"country_code":"BT","lat":27.5,"lng":90.5,"name":"Bhutan","tz":"Asia\/Thimphu"},{"country_code":"BV","lat":-54.43333333,"lng":3.4,"name":"Bouvet Island","tz":"Europe\/Oslo"},{"country_code":"BW","lat":-22,"lng":24,"name":"Botswana","tz":"Africa\/Gaborone"},{"country_code":"CF","lat":7,"lng":21,"name":"Central African Republic","tz":"Africa\/Bangui"},{"country_code":"CA","lat":60,"lng":-95,"name":"Canada","tz":"America\/St_Johns"},{"country_code":"CC","lat":-12.5,"lng":96.83333333,"name":"Cocos (Keeling) Islands","tz":"Indian\/Cocos"},{"country_code":"CH","lat":47,"lng":8,"name":"Switzerland","tz":"Europe\/Zurich"},{"country_code":"CL","lat":-30,"lng":-71,"name":"Chile","tz":"America\/Santiago"},{"country_code":"CN","lat":35,"lng":105,"name":"China","tz":"Asia\/Shanghai"},{"country_code":"CI","lat":8,"lng":-5,"name":"Ivory Coast","tz":"Africa\/Abidjan"},{"country_code":"CM","lat":6,"lng":12,"name":"Cameroon","tz":"Africa\/Douala"},{"country_code":"CD","lat":0,"lng":25,"name":"DR Congo","tz":"Africa\/Kinshasa"},{"country_code":"CG","lat":-1,"lng":15,"name":"Republic of the Congo","tz":"Africa\/Brazzaville"},{"country_code":"CK","lat":-21.23333333,"lng":-159.76666666,"name":"Cook Islands","tz":"Pacific\/Rarotonga"},{"country_code":"CO","lat":4,"lng":-72,"name":"Colombia","tz":"America\/Bogota"},{"country_code":"KM","lat":-12.16666666,"lng":44.25,"name":"Comoros","tz":"Indian\/Comoro"},{"country_code":"CV","lat":16,"lng":-24,"name":"Cape Verde","tz":"Atlantic\/Cape_Verde"},{"country_code":"CR","lat":10,"lng":-84,"name":"Costa Rica","tz":"America\/Costa_Rica"},{"country_code":"CU","lat":21.5,"lng":-80,"name":"Cuba","tz":"America\/Havana"},{"country_code":"CW","lat":12.116667,"lng":-68.933333,"name":"Curaçao","tz":"America\/Curacao"},{"country_code":"CX","lat":-10.5,"lng":105.66666666,"name":"Christmas Island","tz":"Indian\/Christmas"},{"country_code":"KY","lat":19.5,"lng":-80.5,"name":"Cayman Islands","tz":"America\/Cayman"},{"country_code":"CY","lat":35,"lng":33,"name":"Cyprus","tz":"Asia\/Nicosia"},{"country_code":"CZ","lat":49.75,"lng":15.5,"name":"Czech Republic","tz":"Europe\/Prague"},{"country_code":"DE","lat":51,"lng":9,"name":"Germany","tz":"Europe\/Berlin"},{"country_code":"DJ","lat":11.5,"lng":43,"name":"Djibouti","tz":"Africa\/Djibouti"},{"country_code":"DM","lat":15.41666666,"lng":-61.33333333,"name":"Dominica","tz":"America\/Dominica"},{"country_code":"DK","lat":56,"lng":10,"name":"Denmark","tz":"Europe\/Copenhagen"},{"country_code":"DO","lat":19,"lng":-70.66666666,"name":"Dominican Republic","tz":"America\/Santo_Domingo"},{"country_code":"DZ","lat":28,"lng":3,"name":"Algeria","tz":"Africa\/Algiers"},{"country_code":"EC","lat":-2,"lng":-77.5,"name":"Ecuador","tz":"America\/Guayaquil"},{"country_code":"EG","lat":27,"lng":30,"name":"Egypt","tz":"Africa\/Cairo"},{"country_code":"ER","lat":15,"lng":39,"name":"Eritrea","tz":"Africa\/Asmara"},{"country_code":"EH","lat":24.5,"lng":-13,"name":"Western Sahara","tz":"Africa\/El_Aaiun"},{"country_code":"ES","lat":40,"lng":-4,"name":"Spain","tz":"Europe\/Madrid"},{"country_code":"EE","lat":59,"lng":26,"name":"Estonia","tz":"Europe\/Tallinn"},{"country_code":"ET","lat":8,"lng":38,"name":"Ethiopia","tz":"Africa\/Addis_Ababa"},{"country_code":"FI","lat":64,"lng":26,"name":"Finland","tz":"Europe\/Helsinki"},{"country_code":"FJ","lat":-18,"lng":175,"name":"Fiji","tz":"Pacific\/Fiji"},{"country_code":"FK","lat":-51.75,"lng":-59,"name":"Falkland Islands","tz":"Atlantic\/Stanley"},{"country_code":"FR","lat":46,"lng":2,"name":"France","tz":"Europe\/Paris"},{"country_code":"FO","lat":62,"lng":-7,"name":"Faroe Islands","tz":"Atlantic\/Faroe"},{"country_code":"FM","lat":6.91666666,"lng":158.25,"name":"Micronesia","tz":"Pacific\/Chuuk"},{"country_code":"GA","lat":-1,"lng":11.75,"name":"Gabon","tz":"Africa\/Libreville"},{"country_code":"GB","lat":54,"lng":-2,"name":"United Kingdom","tz":"Europe\/London"},{"country_code":"GE","lat":42,"lng":43.5,"name":"Georgia","tz":"Asia\/Tbilisi"},{"country_code":"GG","lat":49.46666666,"lng":-2.58333333,"name":"Guernsey","tz":"Europe\/Guernsey"},{"country_code":"GH","lat":8,"lng":-2,"name":"Ghana","tz":"Africa\/Accra"},{"country_code":"GI","lat":36.13333333,"lng":-5.35,"name":"Gibraltar","tz":"Europe\/Gibraltar"},{"country_code":"GN","lat":11,"lng":-10,"name":"Guinea","tz":"Africa\/Conakry"},{"country_code":"GP","lat":16.25,"lng":-61.583333,"name":"Guadeloupe","tz":"America\/Guadeloupe"},{"country_code":"GM","lat":13.46666666,"lng":-16.56666666,"name":"Gambia","tz":"Africa\/Banjul"},{"country_code":"GW","lat":12,"lng":-15,"name":"Guinea-Bissau","tz":"Africa\/Bissau"},{"country_code":"GQ","lat":2,"lng":10,"name":"Equatorial Guinea","tz":"Africa\/Malabo"},{"country_code":"GR","lat":39,"lng":22,"name":"Greece","tz":"Europe\/Athens"},{"country_code":"GD","lat":12.11666666,"lng":-61.66666666,"name":"Grenada","tz":"America\/Grenada"},{"country_code":"GL","lat":72,"lng":-40,"name":"Greenland","tz":"America\/Godthab"},{"country_code":"GT","lat":15.5,"lng":-90.25,"name":"Guatemala","tz":"America\/Guatemala"},{"country_code":"GF","lat":4,"lng":-53,"name":"French Guiana","tz":"America\/Cayenne"},{"country_code":"GU","lat":13.46666666,"lng":144.78333333,"name":"Guam","tz":"Pacific\/Guam"},{"country_code":"GY","lat":5,"lng":-59,"name":"Guyana","tz":"America\/Guyana"},{"country_code":"HK","lat":22.267,"lng":114.188,"name":"Hong Kong","tz":"Asia\/Hong_Kong"},{"country_code":"HN","lat":15,"lng":-86.5,"name":"Honduras","tz":"America\/Tegucigalpa"},{"country_code":"HR","lat":45.16666666,"lng":15.5,"name":"Croatia","tz":"Europe\/Zagreb"},{"country_code":"HT","lat":19,"lng":-72.41666666,"name":"Haiti","tz":"America\/Port-au-Prince"},{"country_code":"HU","lat":47,"lng":20,"name":"Hungary","tz":"Europe\/Budapest"},{"country_code":"ID","lat":-5,"lng":120,"name":"Indonesia","tz":"Asia\/Jakarta"},{"country_code":"IM","lat":54.25,"lng":-4.5,"name":"Isle of Man","tz":"Europe\/Isle_of_Man"},{"country_code":"IN","lat":20,"lng":77,"name":"India","tz":"Asia\/Kolkata"},{"country_code":"IO","lat":-6,"lng":71.5,"name":"British Indian Ocean Territory","tz":"Indian\/Chagos"},{"country_code":"IE","lat":53,"lng":-8,"name":"Ireland","tz":"Europe\/Dublin"},{"country_code":"IR","lat":32,"lng":53,"name":"Iran","tz":"Asia\/Tehran"},{"country_code":"IQ","lat":33,"lng":44,"name":"Iraq","tz":"Asia\/Baghdad"},{"country_code":"IS","lat":65,"lng":-18,"name":"Iceland","tz":"Atlantic\/Reykjavik"},{"country_code":"IL","lat":31.47,"lng":35.13,"name":"Israel","tz":"Asia\/Jerusalem"},{"country_code":"IT","lat":42.83333333,"lng":12.83333333,"name":"Italy","tz":"Europe\/Rome"},{"country_code":"JM","lat":18.25,"lng":-77.5,"name":"Jamaica","tz":"America\/Jamaica"},{"country_code":"JE","lat":49.25,"lng":-2.16666666,"name":"Jersey","tz":"Europe\/Jersey"},{"country_code":"JO","lat":31,"lng":36,"name":"Jordan","tz":"Asia\/Amman"},{"country_code":"JP","lat":36,"lng":138,"name":"Japan","tz":"Asia\/Tokyo"},{"country_code":"KZ","lat":48,"lng":68,"name":"Kazakhstan","tz":"Asia\/Almaty"},{"country_code":"KE","lat":1,"lng":38,"name":"Kenya","tz":"Africa\/Nairobi"},{"country_code":"KG","lat":41,"lng":75,"name":"Kyrgyzstan","tz":"Asia\/Bishkek"},{"country_code":"KH","lat":13,"lng":105,"name":"Cambodia","tz":"Asia\/Phnom_Penh"},{"country_code":"KI","lat":1.41666666,"lng":173,"name":"Kiribati","tz":"Pacific\/Tarawa"},{"country_code":"KN","lat":17.33333333,"lng":-62.75,"name":"Saint Kitts and Nevis","tz":"America\/St_Kitts"},{"country_code":"KR","lat":37,"lng":127.5,"name":"South Korea","tz":"Asia\/Seoul"},{"country_code":"XK","lat":42.666667,"lng":21.166667,"name":"Kosovo","tz":"Europe\/Belgrade"},{"country_code":"KW","lat":29.5,"lng":45.75,"name":"Kuwait","tz":"Asia\/Kuwait"},{"country_code":"LA","lat":18,"lng":105,"name":"Laos","tz":"Asia\/Vientiane"},{"country_code":"LB","lat":33.83333333,"lng":35.83333333,"name":"Lebanon","tz":"Asia\/Beirut"},{"country_code":"LR","lat":6.5,"lng":-9.5,"name":"Liberia","tz":"Africa\/Monrovia"},{"country_code":"LY","lat":25,"lng":17,"name":"Libya","tz":"Africa\/Tripoli"},{"country_code":"LC","lat":13.88333333,"lng":-60.96666666,"name":"Saint Lucia","tz":"America\/St_Lucia"},{"country_code":"LI","lat":47.26666666,"lng":9.53333333,"name":"Liechtenstein","tz":"Europe\/Vaduz"},{"country_code":"LK","lat":7,"lng":81,"name":"Sri Lanka","tz":"Asia\/Colombo"},{"country_code":"LS","lat":-29.5,"lng":28.5,"name":"Lesotho","tz":"Africa\/Maseru"},{"country_code":"LT","lat":56,"lng":24,"name":"Lithuania","tz":"Europe\/Vilnius"},{"country_code":"LU","lat":49.75,"lng":6.16666666,"name":"Luxembourg","tz":"Europe\/Luxembourg"},{"country_code":"LV","lat":57,"lng":25,"name":"Latvia","tz":"Europe\/Riga"},{"country_code":"MO","lat":22.16666666,"lng":113.55,"name":"Macau","tz":"Asia\/Macau"},{"country_code":"MF","lat":18.08333333,"lng":-63.95,"name":"Saint Martin","tz":"America\/Marigot"},{"country_code":"MA","lat":32,"lng":-5,"name":"Morocco","tz":"Africa\/Casablanca"},{"country_code":"MC","lat":43.73333333,"lng":7.4,"name":"Monaco","tz":"Europe\/Monaco"},{"country_code":"MD","lat":47,"lng":29,"name":"Moldova","tz":"Europe\/Chisinau"},{"country_code":"MG","lat":-20,"lng":47,"name":"Madagascar","tz":"Indian\/Antananarivo"},{"country_code":"MV","lat":3.25,"lng":73,"name":"Maldives","tz":"Indian\/Maldives"},{"country_code":"MX","lat":23,"lng":-102,"name":"Mexico","tz":"America\/Mexico_City"},{"country_code":"MH","lat":9,"lng":168,"name":"Marshall Islands","tz":"Pacific\/Majuro"},{"country_code":"MK","lat":41.83333333,"lng":22,"name":"Macedonia","tz":"Europe\/Skopje"},{"country_code":"ML","lat":17,"lng":-4,"name":"Mali","tz":"Africa\/Bamako"},{"country_code":"MT","lat":35.83333333,"lng":14.58333333,"name":"Malta","tz":"Europe\/Malta"},{"country_code":"MM","lat":22,"lng":98,"name":"Myanmar","tz":"Asia\/Rangoon"},{"country_code":"ME","lat":42.5,"lng":19.3,"name":"Montenegro","tz":"Europe\/Podgorica"},{"country_code":"MN","lat":46,"lng":105,"name":"Mongolia","tz":"Asia\/Ulaanbaatar"},{"country_code":"MP","lat":15.2,"lng":145.75,"name":"Northern Mariana Islands","tz":"Pacific\/Saipan"},{"country_code":"MZ","lat":-18.25,"lng":35,"name":"Mozambique","tz":"Africa\/Maputo"},{"country_code":"MR","lat":20,"lng":-12,"name":"Mauritania","tz":"Africa\/Nouakchott"},{"country_code":"MS","lat":16.75,"lng":-62.2,"name":"Montserrat","tz":"America\/Montserrat"},{"country_code":"MQ","lat":14.666667,"lng":-61,"name":"Martinique","tz":"America\/Martinique"},{"country_code":"MU","lat":-20.28333333,"lng":57.55,"name":"Mauritius","tz":"Indian\/Mauritius"},{"country_code":"MW","lat":-13.5,"lng":34,"name":"Malawi","tz":"Africa\/Blantyre"},{"country_code":"MY","lat":2.5,"lng":112.5,"name":"Malaysia","tz":"Asia\/Kuala_Lumpur"},{"country_code":"YT","lat":-12.83333333,"lng":45.16666666,"name":"Mayotte","tz":"Indian\/Mayotte"},{"country_code":"NA","lat":-22,"lng":17,"name":"Namibia","tz":"Africa\/Windhoek"},{"country_code":"NC","lat":-21.5,"lng":165.5,"name":"New Caledonia","tz":"Pacific\/Noumea"},{"country_code":"NE","lat":16,"lng":8,"name":"Niger","tz":"Africa\/Niamey"},{"country_code":"NF","lat":-29.03333333,"lng":167.95,"name":"Norfolk Island","tz":"Pacific\/Norfolk"},{"country_code":"NG","lat":10,"lng":8,"name":"Nigeria","tz":"Africa\/Lagos"},{"country_code":"NI","lat":13,"lng":-85,"name":"Nicaragua","tz":"America\/Managua"},{"country_code":"NU","lat":-19.03333333,"lng":-169.86666666,"name":"Niue","tz":"Pacific\/Niue"},{"country_code":"NL","lat":52.5,"lng":5.75,"name":"Netherlands","tz":"Europe\/Amsterdam"},{"country_code":"NO","lat":62,"lng":10,"name":"Norway","tz":"Europe\/Oslo"},{"country_code":"NP","lat":28,"lng":84,"name":"Nepal","tz":"Asia\/Kathmandu"},{"country_code":"NR","lat":-0.53333333,"lng":166.91666666,"name":"Nauru","tz":"Pacific\/Nauru"},{"country_code":"NZ","lat":-41,"lng":174,"name":"New Zealand","tz":"Pacific\/Auckland"},{"country_code":"OM","lat":21,"lng":57,"name":"Oman","tz":"Asia\/Muscat"},{"country_code":"PK","lat":30,"lng":70,"name":"Pakistan","tz":"Asia\/Karachi"},{"country_code":"PA","lat":9,"lng":-80,"name":"Panama","tz":"America\/Panama"},{"country_code":"PN","lat":-25.06666666,"lng":-130.1,"name":"Pitcairn Islands","tz":"Pacific\/Pitcairn"},{"country_code":"PE","lat":-10,"lng":-76,"name":"Peru","tz":"America\/Lima"},{"country_code":"PH","lat":13,"lng":122,"name":"Philippines","tz":"Asia\/Manila"},{"country_code":"PW","lat":7.5,"lng":134.5,"name":"Palau","tz":"Pacific\/Palau"},{"country_code":"PG","lat":-6,"lng":147,"name":"Papua New Guinea","tz":"Pacific\/Port_Moresby"},{"country_code":"PL","lat":52,"lng":20,"name":"Poland","tz":"Europe\/Warsaw"},{"country_code":"PR","lat":18.25,"lng":-66.5,"name":"Puerto Rico","tz":"America\/Puerto_Rico"},{"country_code":"KP","lat":40,"lng":127,"name":"North Korea","tz":"Asia\/Pyongyang"},{"country_code":"PT","lat":39.5,"lng":-8,"name":"Portugal","tz":"Europe\/Lisbon"},{"country_code":"PY","lat":-23,"lng":-58,"name":"Paraguay","tz":"America\/Asuncion"},{"country_code":"PS","lat":31.9,"lng":35.2,"name":"Palestine","tz":"Asia\/Gaza"},{"country_code":"PF","lat":-15,"lng":-140,"name":"French Polynesia","tz":"Pacific\/Tahiti"},{"country_code":"QA","lat":25.5,"lng":51.25,"name":"Qatar","tz":"Asia\/Qatar"},{"country_code":"RE","lat":-21.15,"lng":55.5,"name":"Réunion","tz":"Indian\/Reunion"},{"country_code":"RO","lat":46,"lng":25,"name":"Romania","tz":"Europe\/Bucharest"},{"country_code":"RU","lat":60,"lng":100,"name":"Russia","tz":"Europe\/Kaliningrad"},{"country_code":"RW","lat":-2,"lng":30,"name":"Rwanda","tz":"Africa\/Kigali"},{"country_code":"SA","lat":25,"lng":45,"name":"Saudi Arabia","tz":"Asia\/Riyadh"},{"country_code":"SD","lat":15,"lng":30,"name":"Sudan","tz":"Africa\/Khartoum"},{"country_code":"SN","lat":14,"lng":-14,"name":"Senegal","tz":"Africa\/Dakar"},{"country_code":"SG","lat":1.36666666,"lng":103.8,"name":"Singapore","tz":"Asia\/Singapore"},{"country_code":"GS","lat":-54.5,"lng":-37,"name":"South Georgia","tz":"Atlantic\/South_Georgia"},{"country_code":"SJ","lat":78,"lng":20,"name":"Svalbard and Jan Mayen","tz":"Arctic\/Longyearbyen"},{"country_code":"SB","lat":-8,"lng":159,"name":"Solomon Islands","tz":"Pacific\/Guadalcanal"},{"country_code":"SL","lat":8.5,"lng":-11.5,"name":"Sierra Leone","tz":"Africa\/Freetown"},{"country_code":"SV","lat":13.83333333,"lng":-88.91666666,"name":"El Salvador","tz":"America\/El_Salvador"},{"country_code":"SM","lat":43.76666666,"lng":12.41666666,"name":"San Marino","tz":"Europe\/San_Marino"},{"country_code":"SO","lat":10,"lng":49,"name":"Somalia","tz":"Africa\/Mogadishu"},{"country_code":"PM","lat":46.83333333,"lng":-56.33333333,"name":"Saint Pierre and Miquelon","tz":"America\/Miquelon"},{"country_code":"RS","lat":44,"lng":21,"name":"Serbia","tz":"Europe\/Belgrade"},{"country_code":"SS","lat":7,"lng":30,"name":"South Sudan","tz":"Africa\/Juba"},{"country_code":"ST","lat":1,"lng":7,"name":"São Tomé and Príncipe","tz":"Africa\/Sao_Tome"},{"country_code":"SR","lat":4,"lng":-56,"name":"Suriname","tz":"America\/Paramaribo"},{"country_code":"SK","lat":48.66666666,"lng":19.5,"name":"Slovakia","tz":"Europe\/Bratislava"},{"country_code":"SI","lat":46.11666666,"lng":14.81666666,"name":"Slovenia","tz":"Europe\/Ljubljana"},{"country_code":"SE","lat":62,"lng":15,"name":"Sweden","tz":"Europe\/Stockholm"},{"country_code":"SZ","lat":-26.5,"lng":31.5,"name":"Swaziland","tz":"Africa\/Mbabane"},{"country_code":"SX","lat":18.033333,"lng":-63.05,"name":"Sint Maarten","tz":"America\/Lower_Princes"},{"country_code":"SC","lat":-4.58333333,"lng":55.66666666,"name":"Seychelles","tz":"Indian\/Mahe"},{"country_code":"SY","lat":35,"lng":38,"name":"Syria","tz":"Asia\/Damascus"},{"country_code":"TC","lat":21.75,"lng":-71.58333333,"name":"Turks and Caicos Islands","tz":"America\/Grand_Turk"},{"country_code":"TD","lat":15,"lng":19,"name":"Chad","tz":"Africa\/Ndjamena"},{"country_code":"TG","lat":8,"lng":1.16666666,"name":"Togo","tz":"Africa\/Lome"},{"country_code":"TH","lat":15,"lng":100,"name":"Thailand","tz":"Asia\/Bangkok"},{"country_code":"TJ","lat":39,"lng":71,"name":"Tajikistan","tz":"Asia\/Dushanbe"},{"country_code":"TK","lat":-9,"lng":-172,"name":"Tokelau","tz":"Pacific\/Fakaofo"},{"country_code":"TM","lat":40,"lng":60,"name":"Turkmenistan","tz":"Asia\/Ashgabat"},{"country_code":"TL","lat":-8.83333333,"lng":125.91666666,"name":"Timor-Leste","tz":"Asia\/Dili"},{"country_code":"TO","lat":-20,"lng":-175,"name":"Tonga","tz":"Pacific\/Tongatapu"},{"country_code":"TT","lat":11,"lng":-61,"name":"Trinidad and Tobago","tz":"America\/Port_of_Spain"},{"country_code":"TN","lat":34,"lng":9,"name":"Tunisia","tz":"Africa\/Tunis"},{"country_code":"TR","lat":39,"lng":35,"name":"Turkey","tz":"Europe\/Istanbul"},{"country_code":"TV","lat":-8,"lng":178,"name":"Tuvalu","tz":"Pacific\/Funafuti"},{"country_code":"TW","lat":23.5,"lng":121,"name":"Taiwan","tz":"Asia\/Taipei"},{"country_code":"TZ","lat":-6,"lng":35,"name":"Tanzania","tz":"Africa\/Dar_es_Salaam"},{"country_code":"UG","lat":1,"lng":32,"name":"Uganda","tz":"Africa\/Kampala"},{"country_code":"UA","lat":49,"lng":32,"name":"Ukraine","tz":"Europe\/Kiev"},{"country_code":"UM","lat":19.2911437,"lng":166.618332,"name":"United States Minor Outlying Islands","tz":"Pacific\/Johnston"},{"country_code":"UY","lat":-33,"lng":-56,"name":"Uruguay","tz":"America\/Montevideo"},{"country_code":"US","lat":38,"lng":-97,"name":"United States","tz":"America\/New_York"},{"country_code":"UZ","lat":41,"lng":64,"name":"Uzbekistan","tz":"Asia\/Samarkand"},{"country_code":"VA","lat":41.9,"lng":12.45,"name":"Vatican City","tz":"Europe\/Vatican"},{"country_code":"VC","lat":13.25,"lng":-61.2,"name":"Saint Vincent and the Grenadines","tz":"America\/St_Vincent"},{"country_code":"VE","lat":8,"lng":-66,"name":"Venezuela","tz":"America\/Caracas"},{"country_code":"VG","lat":18.431383,"lng":-64.62305,"name":"British Virgin Islands","tz":"America\/Tortola"},{"country_code":"VI","lat":18.35,"lng":-64.933333,"name":"United States Virgin Islands","tz":"America\/St_Thomas"},{"country_code":"VN","lat":16.16666666,"lng":107.83333333,"name":"Vietnam","tz":"Asia\/Ho_Chi_Minh"},{"country_code":"VU","lat":-16,"lng":167,"name":"Vanuatu","tz":"Pacific\/Efate"},{"country_code":"WF","lat":-13.3,"lng":-176.2,"name":"Wallis and Futuna","tz":"Pacific\/Wallis"},{"country_code":"WS","lat":-13.58333333,"lng":-172.33333333,"name":"Samoa","tz":"Pacific\/Apia"},{"country_code":"YE","lat":15,"lng":48,"name":"Yemen","tz":"Asia\/Aden"},{"country_code":"ZA","lat":-29,"lng":24,"name":"South Africa","tz":"Africa\/Johannesburg"},{"country_code":"ZM","lat":-15,"lng":30,"name":"Zambia","tz":"Africa\/Lusaka"},{"country_code":"ZW","lat":-20,"lng":30,"name":"Zimbabwe","tz":"Africa\/Harare"}]