{
	"AW": {
		"lat": 12.5,
		"lng": -69.96666666,
		"name": "Aruba",
		"capital": "Oranjestad"
	},
	"AF": { "lat": 33, "lng": 65, "name": "Afghanistan", "capital": "Kabul" },
	"AO": { "lat": -12.5, "lng": 18.5, "name": "Angola", "capital": "Luanda" },
	"AI": {
		"lat": 18.25,
		"lng": -63.16666666,
		"name": "Anguilla",
		"capital": "The Valley"
	},
	"AX": {
		"lat": 60.116667,
		"lng": 19.9,
		"name": "\u00c5land Islands",
		"capital": "Mariehamn"
	},
	"AL": { "lat": 41, "lng": 20, "name": "Albania", "capital": "Tirana" },
	"AD": {
		"lat": 42.5,
		"lng": 1.5,
		"name": "Andorra",
		"capital": "Andorra la Vella"
	},
	"AE": {
		"lat": 24,
		"lng": 54,
		"name": "United Arab Emirates",
		"capital": "Abu Dhabi"
	},
	"AR": {
		"lat": -34,
		"lng": -64,
		"name": "Argentina",
		"capital": "Buenos Aires"
	},
	"AM": { "lat": 40, "lng": 45, "name": "Armenia", "capital": "Yerevan" },
	"AS": {
		"lat": -14.33333333,
		"lng": -170,
		"name": "American Samoa",
		"capital": "Pago Pago"
	},
	"AQ": { "lat": -90, "lng": 0, "name": "Antarctica", "capital": null },
	"TF": {
		"lat": -49.25,
		"lng": 69.167,
		"name": "French Southern and Antarctic Lands",
		"capital": "Port-aux-Fran\u00e7ais"
	},
	"AG": {
		"lat": 17.05,
		"lng": -61.8,
		"name": "Antigua and Barbuda",
		"capital": "Saint John's"
	},
	"AU": {
		"lat": -27,
		"lng": 133,
		"name": "Australia",
		"capital": "Canberra"
	},
	"AT": {
		"lat": 47.33333333,
		"lng": 13.33333333,
		"name": "Austria",
		"capital": "Vienna"
	},
	"AZ": { "lat": 40.5, "lng": 47.5, "name": "Azerbaijan", "capital": "Baku" },
	"BI": { "lat": -3.5, "lng": 30, "name": "Burundi", "capital": "Bujumbura" },
	"BE": {
		"lat": 50.83333333,
		"lng": 4,
		"name": "Belgium",
		"capital": "Brussels"
	},
	"BJ": { "lat": 9.5, "lng": 2.25, "name": "Benin", "capital": "Porto-Novo" },
	"BF": {
		"lat": 13,
		"lng": -2,
		"name": "Burkina Faso",
		"capital": "Ouagadougou"
	},
	"BD": { "lat": 24, "lng": 90, "name": "Bangladesh", "capital": "Dhaka" },
	"BG": { "lat": 43, "lng": 25, "name": "Bulgaria", "capital": "Sofia" },
	"BH": { "lat": 26, "lng": 50.55, "name": "Bahrain", "capital": "Manama" },
	"BS": { "lat": 24.25, "lng": -76, "name": "Bahamas", "capital": "Nassau" },
	"BA": {
		"lat": 44,
		"lng": 18,
		"name": "Bosnia and Herzegovina",
		"capital": "Sarajevo"
	},
	"BL": {
		"lat": 18.5,
		"lng": -63.41666666,
		"name": "Saint Barth\u00e9lemy",
		"capital": "Gustavia"
	},
	"BY": { "lat": 53, "lng": 28, "name": "Belarus", "capital": "Minsk" },
	"BZ": {
		"lat": 17.25,
		"lng": -88.75,
		"name": "Belize",
		"capital": "Belmopan"
	},
	"BM": {
		"lat": 32.33333333,
		"lng": -64.75,
		"name": "Bermuda",
		"capital": "Hamilton"
	},
	"BO": { "lat": -17, "lng": -65, "name": "Bolivia", "capital": "Sucre" },
	"BR": {
		"lat": -10,
		"lng": -55,
		"name": "Brazil",
		"capital": "Bras\u00edlia"
	},
	"BB": {
		"lat": 13.16666666,
		"lng": -59.53333333,
		"name": "Barbados",
		"capital": "Bridgetown"
	},
	"BN": {
		"lat": 4.5,
		"lng": 114.66666666,
		"name": "Brunei",
		"capital": "Bandar Seri Begawan"
	},
	"BT": { "lat": 27.5, "lng": 90.5, "name": "Bhutan", "capital": "Thimphu" },
	"BV": {
		"lat": -54.43333333,
		"lng": 3.4,
		"name": "Bouvet Island",
		"capital": null
	},
	"BW": { "lat": -22, "lng": 24, "name": "Botswana", "capital": "Gaborone" },
	"CF": {
		"lat": 7,
		"lng": 21,
		"name": "Central African Republic",
		"capital": "Bangui"
	},
	"CA": { "lat": 60, "lng": -95, "name": "Canada", "capital": "Ottawa" },
	"CC": {
		"lat": -12.5,
		"lng": 96.83333333,
		"name": "Cocos (Keeling) Islands",
		"capital": "West Island"
	},
	"CH": { "lat": 47, "lng": 8, "name": "Switzerland", "capital": "Bern" },
	"CL": { "lat": -30, "lng": -71, "name": "Chile", "capital": "Santiago" },
	"CN": { "lat": 35, "lng": 105, "name": "China", "capital": "Beijing" },
	"CI": {
		"lat": 8,
		"lng": -5,
		"name": "Ivory Coast",
		"capital": "Yamoussoukro"
	},
	"CM": {
		"lat": 6,
		"lng": 12,
		"name": "Cameroon",
		"capital": "Yaound\u00e9"
	},
	"CD": { "lat": 0, "lng": 25, "name": "DR Congo", "capital": "Kinshasa" },
	"CG": {
		"lat": -1,
		"lng": 15,
		"name": "Republic of the Congo",
		"capital": "Brazzaville"
	},
	"CK": {
		"lat": -21.23333333,
		"lng": -159.76666666,
		"name": "Cook Islands",
		"capital": "Avarua"
	},
	"CO": {
		"lat": 4,
		"lng": -72,
		"name": "Colombia",
		"capital": "Bogot\u00e1"
	},
	"KM": {
		"lat": -12.16666666,
		"lng": 44.25,
		"name": "Comoros",
		"capital": "Moroni"
	},
	"CV": { "lat": 16, "lng": -24, "name": "Cape Verde", "capital": "Praia" },
	"CR": {
		"lat": 10,
		"lng": -84,
		"name": "Costa Rica",
		"capital": "San Jos\u00e9"
	},
	"CU": { "lat": 21.5, "lng": -80, "name": "Cuba", "capital": "Havana" },
	"CW": {
		"lat": 12.116667,
		"lng": -68.933333,
		"name": "Cura\u00e7ao",
		"capital": "Willemstad"
	},
	"CX": {
		"lat": -10.5,
		"lng": 105.66666666,
		"name": "Christmas Island",
		"capital": "Flying Fish Cove"
	},
	"KY": {
		"lat": 19.5,
		"lng": -80.5,
		"name": "Cayman Islands",
		"capital": "George Town"
	},
	"CY": { "lat": 35, "lng": 33, "name": "Cyprus", "capital": "Nicosia" },
	"CZ": {
		"lat": 49.75,
		"lng": 15.5,
		"name": "Czech Republic",
		"capital": "Prague"
	},
	"DE": { "lat": 51, "lng": 9, "name": "Germany", "capital": "Berlin" },
	"DJ": { "lat": 11.5, "lng": 43, "name": "Djibouti", "capital": "Djibouti" },
	"DM": {
		"lat": 15.41666666,
		"lng": -61.33333333,
		"name": "Dominica",
		"capital": "Roseau"
	},
	"DK": { "lat": 56, "lng": 10, "name": "Denmark", "capital": "Copenhagen" },
	"DO": {
		"lat": 19,
		"lng": -70.66666666,
		"name": "Dominican Republic",
		"capital": "Santo Domingo"
	},
	"DZ": { "lat": 28, "lng": 3, "name": "Algeria", "capital": "Algiers" },
	"EC": { "lat": -2, "lng": -77.5, "name": "Ecuador", "capital": "Quito" },
	"EG": { "lat": 27, "lng": 30, "name": "Egypt", "capital": "Cairo" },
	"ER": { "lat": 15, "lng": 39, "name": "Eritrea", "capital": "Asmara" },
	"EH": {
		"lat": 24.5,
		"lng": -13,
		"name": "Western Sahara",
		"capital": "El Aai\u00fan"
	},
	"ES": { "lat": 40, "lng": -4, "name": "Spain", "capital": "Madrid" },
	"EE": { "lat": 59, "lng": 26, "name": "Estonia", "capital": "Tallinn" },
	"ET": { "lat": 8, "lng": 38, "name": "Ethiopia", "capital": "Addis Ababa" },
	"FI": { "lat": 64, "lng": 26, "name": "Finland", "capital": "Helsinki" },
	"FJ": { "lat": -18, "lng": 175, "name": "Fiji", "capital": "Suva" },
	"FK": {
		"lat": -51.75,
		"lng": -59,
		"name": "Falkland Islands",
		"capital": "Stanley"
	},
	"FR": { "lat": 46, "lng": 2, "name": "France", "capital": "Paris" },
	"FO": {
		"lat": 62,
		"lng": -7,
		"name": "Faroe Islands",
		"capital": "T\u00f3rshavn"
	},
	"FM": {
		"lat": 6.91666666,
		"lng": 158.25,
		"name": "Micronesia",
		"capital": "Palikir"
	},
	"GA": { "lat": -1, "lng": 11.75, "name": "Gabon", "capital": "Libreville" },
	"GB": {
		"lat": 54,
		"lng": -2,
		"name": "United Kingdom",
		"capital": "London"
	},
	"GE": { "lat": 42, "lng": 43.5, "name": "Georgia", "capital": "Tbilisi" },
	"GG": {
		"lat": 49.46666666,
		"lng": -2.58333333,
		"name": "Guernsey",
		"capital": "St. Peter Port"
	},
	"GH": { "lat": 8, "lng": -2, "name": "Ghana", "capital": "Accra" },
	"GI": {
		"lat": 36.13333333,
		"lng": -5.35,
		"name": "Gibraltar",
		"capital": "Gibraltar"
	},
	"GN": { "lat": 11, "lng": -10, "name": "Guinea", "capital": "Conakry" },
	"GP": {
		"lat": 16.25,
		"lng": -61.583333,
		"name": "Guadeloupe",
		"capital": "Basse-Terre"
	},
	"GM": {
		"lat": 13.46666666,
		"lng": -16.56666666,
		"name": "Gambia",
		"capital": "Banjul"
	},
	"GW": {
		"lat": 12,
		"lng": -15,
		"name": "Guinea-Bissau",
		"capital": "Bissau"
	},
	"GQ": {
		"lat": 2,
		"lng": 10,
		"name": "Equatorial Guinea",
		"capital": "Malabo"
	},
	"GR": { "lat": 39, "lng": 22, "name": "Greece", "capital": "Athens" },
	"GD": {
		"lat": 12.11666666,
		"lng": -61.66666666,
		"name": "Grenada",
		"capital": "St. George's"
	},
	"GL": { "lat": 72, "lng": -40, "name": "Greenland", "capital": "Nuuk" },
	"GT": {
		"lat": 15.5,
		"lng": -90.25,
		"name": "Guatemala",
		"capital": "Guatemala City"
	},
	"GF": {
		"lat": 4,
		"lng": -53,
		"name": "French Guiana",
		"capital": "Cayenne"
	},
	"GU": {
		"lat": 13.46666666,
		"lng": 144.78333333,
		"name": "Guam",
		"capital": "Hag\u00e5t\u00f1a"
	},
	"GY": { "lat": 5, "lng": -59, "name": "Guyana", "capital": "Georgetown" },
	"HK": {
		"lat": 22.267,
		"lng": 114.188,
		"name": "Hong Kong",
		"capital": "City of Victoria"
	},
	"HN": {
		"lat": 15,
		"lng": -86.5,
		"name": "Honduras",
		"capital": "Tegucigalpa"
	},
	"HR": {
		"lat": 45.16666666,
		"lng": 15.5,
		"name": "Croatia",
		"capital": "Zagreb"
	},
	"HT": {
		"lat": 19,
		"lng": -72.41666666,
		"name": "Haiti",
		"capital": "Port-au-Prince"
	},
	"HU": { "lat": 47, "lng": 20, "name": "Hungary", "capital": "Budapest" },
	"ID": { "lat": -5, "lng": 120, "name": "Indonesia", "capital": "Jakarta" },
	"IM": {
		"lat": 54.25,
		"lng": -4.5,
		"name": "Isle of Man",
		"capital": "Douglas"
	},
	"IN": { "lat": 20, "lng": 77, "name": "India", "capital": "New Delhi" },
	"IO": {
		"lat": -6,
		"lng": 71.5,
		"name": "British Indian Ocean Territory",
		"capital": "Diego Garcia"
	},
	"IE": { "lat": 53, "lng": -8, "name": "Ireland", "capital": "Dublin" },
	"IR": { "lat": 32, "lng": 53, "name": "Iran", "capital": "Tehran" },
	"IQ": { "lat": 33, "lng": 44, "name": "Iraq", "capital": "Baghdad" },
	"IS": { "lat": 65, "lng": -18, "name": "Iceland", "capital": "Reykjavik" },
	"IL": {
		"lat": 31.47,
		"lng": 35.13,
		"name": "Israel",
		"capital": "Jerusalem"
	},
	"IT": {
		"lat": 42.83333333,
		"lng": 12.83333333,
		"name": "Italy",
		"capital": "Rome"
	},
	"JM": {
		"lat": 18.25,
		"lng": -77.5,
		"name": "Jamaica",
		"capital": "Kingston"
	},
	"JE": {
		"lat": 49.25,
		"lng": -2.16666666,
		"name": "Jersey",
		"capital": "Saint Helier"
	},
	"JO": { "lat": 31, "lng": 36, "name": "Jordan", "capital": "Amman" },
	"JP": { "lat": 36, "lng": 138, "name": "Japan", "capital": "Tokyo" },
	"KZ": { "lat": 48, "lng": 68, "name": "Kazakhstan", "capital": "Astana" },
	"KE": { "lat": 1, "lng": 38, "name": "Kenya", "capital": "Nairobi" },
	"KG": { "lat": 41, "lng": 75, "name": "Kyrgyzstan", "capital": "Bishkek" },
	"KH": {
		"lat": 13,
		"lng": 105,
		"name": "Cambodia",
		"capital": "Phnom Penh"
	},
	"KI": {
		"lat": 1.41666666,
		"lng": 173,
		"name": "Kiribati",
		"capital": "South Tarawa"
	},
	"KN": {
		"lat": 17.33333333,
		"lng": -62.75,
		"name": "Saint Kitts and Nevis",
		"capital": "Basseterre"
	},
	"KR": {
		"lat": 37,
		"lng": 127.5,
		"name": "South Korea",
		"capital": "Seoul"
	},
	"XK": {
		"lat": 42.666667,
		"lng": 21.166667,
		"name": "Kosovo",
		"capital": "Pristina"
	},
	"KW": {
		"lat": 29.5,
		"lng": 45.75,
		"name": "Kuwait",
		"capital": "Kuwait City"
	},
	"LA": { "lat": 18, "lng": 105, "name": "Laos", "capital": "Vientiane" },
	"LB": {
		"lat": 33.83333333,
		"lng": 35.83333333,
		"name": "Lebanon",
		"capital": "Beirut"
	},
	"LR": { "lat": 6.5, "lng": -9.5, "name": "Liberia", "capital": "Monrovia" },
	"LY": { "lat": 25, "lng": 17, "name": "Libya", "capital": "Tripoli" },
	"LC": {
		"lat": 13.88333333,
		"lng": -60.96666666,
		"name": "Saint Lucia",
		"capital": "Castries"
	},
	"LI": {
		"lat": 47.26666666,
		"lng": 9.53333333,
		"name": "Liechtenstein",
		"capital": "Vaduz"
	},
	"LK": { "lat": 7, "lng": 81, "name": "Sri Lanka", "capital": "Colombo" },
	"LS": { "lat": -29.5, "lng": 28.5, "name": "Lesotho", "capital": "Maseru" },
	"LT": { "lat": 56, "lng": 24, "name": "Lithuania", "capital": "Vilnius" },
	"LU": {
		"lat": 49.75,
		"lng": 6.16666666,
		"name": "Luxembourg",
		"capital": "Luxembourg"
	},
	"LV": { "lat": 57, "lng": 25, "name": "Latvia", "capital": "Riga" },
	"MO": {
		"lat": 22.16666666,
		"lng": 113.55,
		"name": "Macau",
		"capital": null
	},
	"MF": {
		"lat": 18.08333333,
		"lng": -63.95,
		"name": "Saint Martin",
		"capital": "Marigot"
	},
	"MA": { "lat": 32, "lng": -5, "name": "Morocco", "capital": "Rabat" },
	"MC": {
		"lat": 43.73333333,
		"lng": 7.4,
		"name": "Monaco",
		"capital": "Monaco"
	},
	"MD": {
		"lat": 47,
		"lng": 29,
		"name": "Moldova",
		"capital": "Chi\u0219in\u0103u"
	},
	"MG": {
		"lat": -20,
		"lng": 47,
		"name": "Madagascar",
		"capital": "Antananarivo"
	},
	"MV": {
		"lat": 3.25,
		"lng": 73,
		"name": "Maldives",
		"capital": "Mal\u00e9"
	},
	"MX": {
		"lat": 23,
		"lng": -102,
		"name": "Mexico",
		"capital": "Mexico City"
	},
	"MH": {
		"lat": 9,
		"lng": 168,
		"name": "Marshall Islands",
		"capital": "Majuro"
	},
	"MK": {
		"lat": 41.83333333,
		"lng": 22,
		"name": "Macedonia",
		"capital": "Skopje"
	},
	"ML": { "lat": 17, "lng": -4, "name": "Mali", "capital": "Bamako" },
	"MT": {
		"lat": 35.83333333,
		"lng": 14.58333333,
		"name": "Malta",
		"capital": "Valletta"
	},
	"MM": { "lat": 22, "lng": 98, "name": "Myanmar", "capital": "Naypyidaw" },
	"ME": {
		"lat": 42.5,
		"lng": 19.3,
		"name": "Montenegro",
		"capital": "Podgorica"
	},
	"MN": {
		"lat": 46,
		"lng": 105,
		"name": "Mongolia",
		"capital": "Ulan Bator"
	},
	"MP": {
		"lat": 15.2,
		"lng": 145.75,
		"name": "Northern Mariana Islands",
		"capital": "Saipan"
	},
	"MZ": {
		"lat": -18.25,
		"lng": 35,
		"name": "Mozambique",
		"capital": "Maputo"
	},
	"MR": {
		"lat": 20,
		"lng": -12,
		"name": "Mauritania",
		"capital": "Nouakchott"
	},
	"MS": {
		"lat": 16.75,
		"lng": -62.2,
		"name": "Montserrat",
		"capital": "Plymouth"
	},
	"MQ": {
		"lat": 14.666667,
		"lng": -61,
		"name": "Martinique",
		"capital": "Fort-de-France"
	},
	"MU": {
		"lat": -20.28333333,
		"lng": 57.55,
		"name": "Mauritius",
		"capital": "Port Louis"
	},
	"MW": { "lat": -13.5, "lng": 34, "name": "Malawi", "capital": "Lilongwe" },
	"MY": {
		"lat": 2.5,
		"lng": 112.5,
		"name": "Malaysia",
		"capital": "Kuala Lumpur"
	},
	"YT": {
		"lat": -12.83333333,
		"lng": 45.16666666,
		"name": "Mayotte",
		"capital": "Mamoudzou"
	},
	"NA": { "lat": -22, "lng": 17, "name": "Namibia", "capital": "Windhoek" },
	"NC": {
		"lat": -21.5,
		"lng": 165.5,
		"name": "New Caledonia",
		"capital": "Noum\u00e9a"
	},
	"NE": { "lat": 16, "lng": 8, "name": "Niger", "capital": "Niamey" },
	"NF": {
		"lat": -29.03333333,
		"lng": 167.95,
		"name": "Norfolk Island",
		"capital": "Kingston"
	},
	"NG": { "lat": 10, "lng": 8, "name": "Nigeria", "capital": "Abuja" },
	"NI": { "lat": 13, "lng": -85, "name": "Nicaragua", "capital": "Managua" },
	"NU": {
		"lat": -19.03333333,
		"lng": -169.86666666,
		"name": "Niue",
		"capital": "Alofi"
	},
	"NL": {
		"lat": 52.5,
		"lng": 5.75,
		"name": "Netherlands",
		"capital": "Amsterdam"
	},
	"NO": { "lat": 62, "lng": 10, "name": "Norway", "capital": "Oslo" },
	"NP": { "lat": 28, "lng": 84, "name": "Nepal", "capital": "Kathmandu" },
	"NR": {
		"lat": -0.53333333,
		"lng": 166.91666666,
		"name": "Nauru",
		"capital": "Yaren"
	},
	"NZ": {
		"lat": -41,
		"lng": 174,
		"name": "New Zealand",
		"capital": "Wellington"
	},
	"OM": { "lat": 21, "lng": 57, "name": "Oman", "capital": "Muscat" },
	"PK": { "lat": 30, "lng": 70, "name": "Pakistan", "capital": "Islamabad" },
	"PA": { "lat": 9, "lng": -80, "name": "Panama", "capital": "Panama City" },
	"PN": {
		"lat": -25.06666666,
		"lng": -130.1,
		"name": "Pitcairn Islands",
		"capital": "Adamstown"
	},
	"PE": { "lat": -10, "lng": -76, "name": "Peru", "capital": "Lima" },
	"PH": { "lat": 13, "lng": 122, "name": "Philippines", "capital": "Manila" },
	"PW": { "lat": 7.5, "lng": 134.5, "name": "Palau", "capital": "Ngerulmud" },
	"PG": {
		"lat": -6,
		"lng": 147,
		"name": "Papua New Guinea",
		"capital": "Port Moresby"
	},
	"PL": { "lat": 52, "lng": 20, "name": "Poland", "capital": "Warsaw" },
	"PR": {
		"lat": 18.25,
		"lng": -66.5,
		"name": "Puerto Rico",
		"capital": "San Juan"
	},
	"KP": {
		"lat": 40,
		"lng": 127,
		"name": "North Korea",
		"capital": "Pyongyang"
	},
	"PT": { "lat": 39.5, "lng": -8, "name": "Portugal", "capital": "Lisbon" },
	"PY": {
		"lat": -23,
		"lng": -58,
		"name": "Paraguay",
		"capital": "Asunci\u00f3n"
	},
	"PS": {
		"lat": 31.9,
		"lng": 35.2,
		"name": "Palestine",
		"capital": "Ramallah"
	},
	"PF": {
		"lat": -15,
		"lng": -140,
		"name": "French Polynesia",
		"capital": "Papeet\u0113"
	},
	"QA": { "lat": 25.5, "lng": 51.25, "name": "Qatar", "capital": "Doha" },
	"RE": {
		"lat": -21.15,
		"lng": 55.5,
		"name": "R\u00e9union",
		"capital": "Saint-Denis"
	},
	"RO": { "lat": 46, "lng": 25, "name": "Romania", "capital": "Bucharest" },
	"RU": { "lat": 60, "lng": 100, "name": "Russia", "capital": "Moscow" },
	"RW": { "lat": -2, "lng": 30, "name": "Rwanda", "capital": "Kigali" },
	"SA": { "lat": 25, "lng": 45, "name": "Saudi Arabia", "capital": "Riyadh" },
	"SD": { "lat": 15, "lng": 30, "name": "Sudan", "capital": "Khartoum" },
	"SN": { "lat": 14, "lng": -14, "name": "Senegal", "capital": "Dakar" },
	"SG": {
		"lat": 1.36666666,
		"lng": 103.8,
		"name": "Singapore",
		"capital": "Singapore"
	},
	"GS": {
		"lat": -54.5,
		"lng": -37,
		"name": "South Georgia",
		"capital": "King Edward Point"
	},
	"SJ": {
		"lat": 78,
		"lng": 20,
		"name": "Svalbard and Jan Mayen",
		"capital": "Longyearbyen"
	},
	"SB": {
		"lat": -8,
		"lng": 159,
		"name": "Solomon Islands",
		"capital": "Honiara"
	},
	"SL": {
		"lat": 8.5,
		"lng": -11.5,
		"name": "Sierra Leone",
		"capital": "Freetown"
	},
	"SV": {
		"lat": 13.83333333,
		"lng": -88.91666666,
		"name": "El Salvador",
		"capital": "San Salvador"
	},
	"SM": {
		"lat": 43.76666666,
		"lng": 12.41666666,
		"name": "San Marino",
		"capital": "City of San Marino"
	},
	"SO": { "lat": 10, "lng": 49, "name": "Somalia", "capital": "Mogadishu" },
	"PM": {
		"lat": 46.83333333,
		"lng": -56.33333333,
		"name": "Saint Pierre and Miquelon",
		"capital": "Saint-Pierre"
	},
	"RS": { "lat": 44, "lng": 21, "name": "Serbia", "capital": "Belgrade" },
	"SS": { "lat": 7, "lng": 30, "name": "South Sudan", "capital": "Juba" },
	"ST": {
		"lat": 1,
		"lng": 7,
		"name": "S\u00e3o Tom\u00e9 and Pr\u00edncipe",
		"capital": "S\u00e3o Tom\u00e9"
	},
	"SR": { "lat": 4, "lng": -56, "name": "Suriname", "capital": "Paramaribo" },
	"SK": {
		"lat": 48.66666666,
		"lng": 19.5,
		"name": "Slovakia",
		"capital": "Bratislava"
	},
	"SI": {
		"lat": 46.11666666,
		"lng": 14.81666666,
		"name": "Slovenia",
		"capital": "Ljubljana"
	},
	"SE": { "lat": 62, "lng": 15, "name": "Sweden", "capital": "Stockholm" },
	"SZ": {
		"lat": -26.5,
		"lng": 31.5,
		"name": "Swaziland",
		"capital": "Lobamba"
	},
	"SX": {
		"lat": 18.033333,
		"lng": -63.05,
		"name": "Sint Maarten",
		"capital": "Philipsburg"
	},
	"SC": {
		"lat": -4.58333333,
		"lng": 55.66666666,
		"name": "Seychelles",
		"capital": "Victoria"
	},
	"SY": { "lat": 35, "lng": 38, "name": "Syria", "capital": "Damascus" },
	"TC": {
		"lat": 21.75,
		"lng": -71.58333333,
		"name": "Turks and Caicos Islands",
		"capital": "Cockburn Town"
	},
	"TD": { "lat": 15, "lng": 19, "name": "Chad", "capital": "N'Djamena" },
	"TG": {
		"lat": 8,
		"lng": 1.16666666,
		"name": "Togo",
		"capital": "Lom\u00e9"
	},
	"TH": { "lat": 15, "lng": 100, "name": "Thailand", "capital": "Bangkok" },
	"TJ": { "lat": 39, "lng": 71, "name": "Tajikistan", "capital": "Dushanbe" },
	"TK": { "lat": -9, "lng": -172, "name": "Tokelau", "capital": "Fakaofo" },
	"TM": {
		"lat": 40,
		"lng": 60,
		"name": "Turkmenistan",
		"capital": "Ashgabat"
	},
	"TL": {
		"lat": -8.83333333,
		"lng": 125.91666666,
		"name": "Timor-Leste",
		"capital": "Dili"
	},
	"TO": { "lat": -20, "lng": -175, "name": "Tonga", "capital": "Nuku'alofa" },
	"TT": {
		"lat": 11,
		"lng": -61,
		"name": "Trinidad and Tobago",
		"capital": "Port of Spain"
	},
	"TN": { "lat": 34, "lng": 9, "name": "Tunisia", "capital": "Tunis" },
	"TR": { "lat": 39, "lng": 35, "name": "Turkey", "capital": "Ankara" },
	"TV": { "lat": -8, "lng": 178, "name": "Tuvalu", "capital": "Funafuti" },
	"TW": { "lat": 23.5, "lng": 121, "name": "Taiwan", "capital": "Taipei" },
	"TZ": { "lat": -6, "lng": 35, "name": "Tanzania", "capital": "Dodoma" },
	"UG": { "lat": 1, "lng": 32, "name": "Uganda", "capital": "Kampala" },
	"UA": { "lat": 49, "lng": 32, "name": "Ukraine", "capital": "Kiev" },
	"UM": {
		"lat": 19.2911437,
		"lng": 166.618332,
		"name": "United States Minor Outlying Islands",
		"capital": null
	},
	"UY": {
		"lat": -33,
		"lng": -56,
		"name": "Uruguay",
		"capital": "Montevideo"
	},
	"US": {
		"lat": 38,
		"lng": -97,
		"name": "United States",
		"capital": "Washington D.C."
	},
	"UZ": { "lat": 41, "lng": 64, "name": "Uzbekistan", "capital": "Tashkent" },
	"VA": {
		"lat": 41.9,
		"lng": 12.45,
		"name": "Vatican City",
		"capital": "Vatican City"
	},
	"VC": {
		"lat": 13.25,
		"lng": -61.2,
		"name": "Saint Vincent and the Grenadines",
		"capital": "Kingstown"
	},
	"VE": { "lat": 8, "lng": -66, "name": "Venezuela", "capital": "Caracas" },
	"VG": {
		"lat": 18.431383,
		"lng": -64.62305,
		"name": "British Virgin Islands",
		"capital": "Road Town"
	},
	"VI": {
		"lat": 18.35,
		"lng": -64.933333,
		"name": "United States Virgin Islands",
		"capital": "Charlotte Amalie"
	},
	"VN": {
		"lat": 16.16666666,
		"lng": 107.83333333,
		"name": "Vietnam",
		"capital": "Hanoi"
	},
	"VU": { "lat": -16, "lng": 167, "name": "Vanuatu", "capital": "Port Vila" },
	"WF": {
		"lat": -13.3,
		"lng": -176.2,
		"name": "Wallis and Futuna",
		"capital": "Mata-Utu"
	},
	"WS": {
		"lat": -13.58333333,
		"lng": -172.33333333,
		"name": "Samoa",
		"capital": "Apia"
	},
	"YE": { "lat": 15, "lng": 48, "name": "Yemen", "capital": "Sana'a" },
	"ZA": {
		"lat": -29,
		"lng": 24,
		"name": "South Africa",
		"capital": "Pretoria"
	},
	"ZM": { "lat": -15, "lng": 30, "name": "Zambia", "capital": "Lusaka" },
	"ZW": { "lat": -20, "lng": 30, "name": "Zimbabwe", "capital": "Harare" }
}
