[
	{ "country_code": "AW", "lat": 12.5, "lng": -69.96666666, "name": "Aruba" },
	{ "country_code": "AF", "lat": 33, "lng": 65, "name": "Afghanistan" },
	{ "country_code": "AO", "lat": -12.5, "lng": 18.5, "name": "Angola" },
	{
		"country_code": "AI",
		"lat": 18.25,
		"lng": -63.16666666,
		"name": "Anguilla"
	},
	{
		"country_code": "AX",
		"lat": 60.116667,
		"lng": 19.9,
		"name": "\u00c5land Islands"
	},
	{ "country_code": "AL", "lat": 41, "lng": 20, "name": "Albania" },
	{ "country_code": "AD", "lat": 42.5, "lng": 1.5, "name": "Andorra" },
	{
		"country_code": "AE",
		"lat": 24,
		"lng": 54,
		"name": "United Arab Emirates"
	},
	{ "country_code": "AR", "lat": -34, "lng": -64, "name": "Argentina" },
	{ "country_code": "AM", "lat": 40, "lng": 45, "name": "Armenia" },
	{
		"country_code": "AS",
		"lat": -14.33333333,
		"lng": -170,
		"name": "American Samoa"
	},
	{ "country_code": "AQ", "lat": -90, "lng": 0, "name": "Antarctica" },
	{
		"country_code": "TF",
		"lat": -49.25,
		"lng": 69.167,
		"name": "French Southern and Antarctic Lands"
	},
	{
		"country_code": "AG",
		"lat": 17.05,
		"lng": -61.8,
		"name": "Antigua and Barbuda"
	},
	{ "country_code": "AU", "lat": -27, "lng": 133, "name": "Australia" },
	{
		"country_code": "AT",
		"lat": 47.33333333,
		"lng": 13.33333333,
		"name": "Austria"
	},
	{ "country_code": "AZ", "lat": 40.5, "lng": 47.5, "name": "Azerbaijan" },
	{ "country_code": "BI", "lat": -3.5, "lng": 30, "name": "Burundi" },
	{ "country_code": "BE", "lat": 50.83333333, "lng": 4, "name": "Belgium" },
	{ "country_code": "BJ", "lat": 9.5, "lng": 2.25, "name": "Benin" },
	{ "country_code": "BF", "lat": 13, "lng": -2, "name": "Burkina Faso" },
	{ "country_code": "BD", "lat": 24, "lng": 90, "name": "Bangladesh" },
	{ "country_code": "BG", "lat": 43, "lng": 25, "name": "Bulgaria" },
	{ "country_code": "BH", "lat": 26, "lng": 50.55, "name": "Bahrain" },
	{ "country_code": "BS", "lat": 24.25, "lng": -76, "name": "Bahamas" },
	{
		"country_code": "BA",
		"lat": 44,
		"lng": 18,
		"name": "Bosnia and Herzegovina"
	},
	{
		"country_code": "BL",
		"lat": 18.5,
		"lng": -63.41666666,
		"name": "Saint Barth\u00e9lemy"
	},
	{ "country_code": "BY", "lat": 53, "lng": 28, "name": "Belarus" },
	{ "country_code": "BZ", "lat": 17.25, "lng": -88.75, "name": "Belize" },
	{
		"country_code": "BM",
		"lat": 32.33333333,
		"lng": -64.75,
		"name": "Bermuda"
	},
	{ "country_code": "BO", "lat": -17, "lng": -65, "name": "Bolivia" },
	{ "country_code": "BR", "lat": -10, "lng": -55, "name": "Brazil" },
	{
		"country_code": "BB",
		"lat": 13.16666666,
		"lng": -59.53333333,
		"name": "Barbados"
	},
	{ "country_code": "BN", "lat": 4.5, "lng": 114.66666666, "name": "Brunei" },
	{ "country_code": "BT", "lat": 27.5, "lng": 90.5, "name": "Bhutan" },
	{
		"country_code": "BV",
		"lat": -54.43333333,
		"lng": 3.4,
		"name": "Bouvet Island"
	},
	{ "country_code": "BW", "lat": -22, "lng": 24, "name": "Botswana" },
	{
		"country_code": "CF",
		"lat": 7,
		"lng": 21,
		"name": "Central African Republic"
	},
	{ "country_code": "CA", "lat": 60, "lng": -95, "name": "Canada" },
	{
		"country_code": "CC",
		"lat": -12.5,
		"lng": 96.83333333,
		"name": "Cocos (Keeling) Islands"
	},
	{ "country_code": "CH", "lat": 47, "lng": 8, "name": "Switzerland" },
	{ "country_code": "CL", "lat": -30, "lng": -71, "name": "Chile" },
	{ "country_code": "CN", "lat": 35, "lng": 105, "name": "China" },
	{ "country_code": "CI", "lat": 8, "lng": -5, "name": "Ivory Coast" },
	{ "country_code": "CM", "lat": 6, "lng": 12, "name": "Cameroon" },
	{ "country_code": "CD", "lat": 0, "lng": 25, "name": "DR Congo" },
	{
		"country_code": "CG",
		"lat": -1,
		"lng": 15,
		"name": "Republic of the Congo"
	},
	{
		"country_code": "CK",
		"lat": -21.23333333,
		"lng": -159.76666666,
		"name": "Cook Islands"
	},
	{ "country_code": "CO", "lat": 4, "lng": -72, "name": "Colombia" },
	{
		"country_code": "KM",
		"lat": -12.16666666,
		"lng": 44.25,
		"name": "Comoros"
	},
	{ "country_code": "CV", "lat": 16, "lng": -24, "name": "Cape Verde" },
	{ "country_code": "CR", "lat": 10, "lng": -84, "name": "Costa Rica" },
	{ "country_code": "CU", "lat": 21.5, "lng": -80, "name": "Cuba" },
	{
		"country_code": "CW",
		"lat": 12.116667,
		"lng": -68.933333,
		"name": "Cura\u00e7ao"
	},
	{
		"country_code": "CX",
		"lat": -10.5,
		"lng": 105.66666666,
		"name": "Christmas Island"
	},
	{
		"country_code": "KY",
		"lat": 19.5,
		"lng": -80.5,
		"name": "Cayman Islands"
	},
	{ "country_code": "CY", "lat": 35, "lng": 33, "name": "Cyprus" },
	{
		"country_code": "CZ",
		"lat": 49.75,
		"lng": 15.5,
		"name": "Czech Republic"
	},
	{ "country_code": "DE", "lat": 51, "lng": 9, "name": "Germany" },
	{ "country_code": "DJ", "lat": 11.5, "lng": 43, "name": "Djibouti" },
	{
		"country_code": "DM",
		"lat": 15.41666666,
		"lng": -61.33333333,
		"name": "Dominica"
	},
	{ "country_code": "DK", "lat": 56, "lng": 10, "name": "Denmark" },
	{
		"country_code": "DO",
		"lat": 19,
		"lng": -70.66666666,
		"name": "Dominican Republic"
	},
	{ "country_code": "DZ", "lat": 28, "lng": 3, "name": "Algeria" },
	{ "country_code": "EC", "lat": -2, "lng": -77.5, "name": "Ecuador" },
	{ "country_code": "EG", "lat": 27, "lng": 30, "name": "Egypt" },
	{ "country_code": "ER", "lat": 15, "lng": 39, "name": "Eritrea" },
	{ "country_code": "EH", "lat": 24.5, "lng": -13, "name": "Western Sahara" },
	{ "country_code": "ES", "lat": 40, "lng": -4, "name": "Spain" },
	{ "country_code": "EE", "lat": 59, "lng": 26, "name": "Estonia" },
	{ "country_code": "ET", "lat": 8, "lng": 38, "name": "Ethiopia" },
	{ "country_code": "FI", "lat": 64, "lng": 26, "name": "Finland" },
	{ "country_code": "FJ", "lat": -18, "lng": 175, "name": "Fiji" },
	{
		"country_code": "FK",
		"lat": -51.75,
		"lng": -59,
		"name": "Falkland Islands"
	},
	{ "country_code": "FR", "lat": 46, "lng": 2, "name": "France" },
	{ "country_code": "FO", "lat": 62, "lng": -7, "name": "Faroe Islands" },
	{
		"country_code": "FM",
		"lat": 6.91666666,
		"lng": 158.25,
		"name": "Micronesia"
	},
	{ "country_code": "GA", "lat": -1, "lng": 11.75, "name": "Gabon" },
	{ "country_code": "GB", "lat": 54, "lng": -2, "name": "United Kingdom" },
	{ "country_code": "GE", "lat": 42, "lng": 43.5, "name": "Georgia" },
	{
		"country_code": "GG",
		"lat": 49.46666666,
		"lng": -2.58333333,
		"name": "Guernsey"
	},
	{ "country_code": "GH", "lat": 8, "lng": -2, "name": "Ghana" },
	{
		"country_code": "GI",
		"lat": 36.13333333,
		"lng": -5.35,
		"name": "Gibraltar"
	},
	{ "country_code": "GN", "lat": 11, "lng": -10, "name": "Guinea" },
	{
		"country_code": "GP",
		"lat": 16.25,
		"lng": -61.583333,
		"name": "Guadeloupe"
	},
	{
		"country_code": "GM",
		"lat": 13.46666666,
		"lng": -16.56666666,
		"name": "Gambia"
	},
	{ "country_code": "GW", "lat": 12, "lng": -15, "name": "Guinea-Bissau" },
	{ "country_code": "GQ", "lat": 2, "lng": 10, "name": "Equatorial Guinea" },
	{ "country_code": "GR", "lat": 39, "lng": 22, "name": "Greece" },
	{
		"country_code": "GD",
		"lat": 12.11666666,
		"lng": -61.66666666,
		"name": "Grenada"
	},
	{ "country_code": "GL", "lat": 72, "lng": -40, "name": "Greenland" },
	{ "country_code": "GT", "lat": 15.5, "lng": -90.25, "name": "Guatemala" },
	{ "country_code": "GF", "lat": 4, "lng": -53, "name": "French Guiana" },
	{
		"country_code": "GU",
		"lat": 13.46666666,
		"lng": 144.78333333,
		"name": "Guam"
	},
	{ "country_code": "GY", "lat": 5, "lng": -59, "name": "Guyana" },
	{
		"country_code": "HK",
		"lat": 22.267,
		"lng": 114.188,
		"name": "Hong Kong"
	},
	{ "country_code": "HN", "lat": 15, "lng": -86.5, "name": "Honduras" },
	{
		"country_code": "HR",
		"lat": 45.16666666,
		"lng": 15.5,
		"name": "Croatia"
	},
	{ "country_code": "HT", "lat": 19, "lng": -72.41666666, "name": "Haiti" },
	{ "country_code": "HU", "lat": 47, "lng": 20, "name": "Hungary" },
	{ "country_code": "ID", "lat": -5, "lng": 120, "name": "Indonesia" },
	{ "country_code": "IM", "lat": 54.25, "lng": -4.5, "name": "Isle of Man" },
	{ "country_code": "IN", "lat": 20, "lng": 77, "name": "India" },
	{
		"country_code": "IO",
		"lat": -6,
		"lng": 71.5,
		"name": "British Indian Ocean Territory"
	},
	{ "country_code": "IE", "lat": 53, "lng": -8, "name": "Ireland" },
	{ "country_code": "IR", "lat": 32, "lng": 53, "name": "Iran" },
	{ "country_code": "IQ", "lat": 33, "lng": 44, "name": "Iraq" },
	{ "country_code": "IS", "lat": 65, "lng": -18, "name": "Iceland" },
	{ "country_code": "IL", "lat": 31.47, "lng": 35.13, "name": "Israel" },
	{
		"country_code": "IT",
		"lat": 42.83333333,
		"lng": 12.83333333,
		"name": "Italy"
	},
	{ "country_code": "JM", "lat": 18.25, "lng": -77.5, "name": "Jamaica" },
	{
		"country_code": "JE",
		"lat": 49.25,
		"lng": -2.16666666,
		"name": "Jersey"
	},
	{ "country_code": "JO", "lat": 31, "lng": 36, "name": "Jordan" },
	{ "country_code": "JP", "lat": 36, "lng": 138, "name": "Japan" },
	{ "country_code": "KZ", "lat": 48, "lng": 68, "name": "Kazakhstan" },
	{ "country_code": "KE", "lat": 1, "lng": 38, "name": "Kenya" },
	{ "country_code": "KG", "lat": 41, "lng": 75, "name": "Kyrgyzstan" },
	{ "country_code": "KH", "lat": 13, "lng": 105, "name": "Cambodia" },
	{ "country_code": "KI", "lat": 1.41666666, "lng": 173, "name": "Kiribati" },
	{
		"country_code": "KN",
		"lat": 17.33333333,
		"lng": -62.75,
		"name": "Saint Kitts and Nevis"
	},
	{ "country_code": "KR", "lat": 37, "lng": 127.5, "name": "South Korea" },
	{
		"country_code": "XK",
		"lat": 42.666667,
		"lng": 21.166667,
		"name": "Kosovo"
	},
	{ "country_code": "KW", "lat": 29.5, "lng": 45.75, "name": "Kuwait" },
	{ "country_code": "LA", "lat": 18, "lng": 105, "name": "Laos" },
	{
		"country_code": "LB",
		"lat": 33.83333333,
		"lng": 35.83333333,
		"name": "Lebanon"
	},
	{ "country_code": "LR", "lat": 6.5, "lng": -9.5, "name": "Liberia" },
	{ "country_code": "LY", "lat": 25, "lng": 17, "name": "Libya" },
	{
		"country_code": "LC",
		"lat": 13.88333333,
		"lng": -60.96666666,
		"name": "Saint Lucia"
	},
	{
		"country_code": "LI",
		"lat": 47.26666666,
		"lng": 9.53333333,
		"name": "Liechtenstein"
	},
	{ "country_code": "LK", "lat": 7, "lng": 81, "name": "Sri Lanka" },
	{ "country_code": "LS", "lat": -29.5, "lng": 28.5, "name": "Lesotho" },
	{ "country_code": "LT", "lat": 56, "lng": 24, "name": "Lithuania" },
	{
		"country_code": "LU",
		"lat": 49.75,
		"lng": 6.16666666,
		"name": "Luxembourg"
	},
	{ "country_code": "LV", "lat": 57, "lng": 25, "name": "Latvia" },
	{
		"country_code": "MO",
		"lat": 22.16666666,
		"lng": 113.55,
		"name": "Macau"
	},
	{
		"country_code": "MF",
		"lat": 18.08333333,
		"lng": -63.95,
		"name": "Saint Martin"
	},
	{ "country_code": "MA", "lat": 32, "lng": -5, "name": "Morocco" },
	{ "country_code": "MC", "lat": 43.73333333, "lng": 7.4, "name": "Monaco" },
	{ "country_code": "MD", "lat": 47, "lng": 29, "name": "Moldova" },
	{ "country_code": "MG", "lat": -20, "lng": 47, "name": "Madagascar" },
	{ "country_code": "MV", "lat": 3.25, "lng": 73, "name": "Maldives" },
	{ "country_code": "MX", "lat": 23, "lng": -102, "name": "Mexico" },
	{ "country_code": "MH", "lat": 9, "lng": 168, "name": "Marshall Islands" },
	{
		"country_code": "MK",
		"lat": 41.83333333,
		"lng": 22,
		"name": "Macedonia"
	},
	{ "country_code": "ML", "lat": 17, "lng": -4, "name": "Mali" },
	{
		"country_code": "MT",
		"lat": 35.83333333,
		"lng": 14.58333333,
		"name": "Malta"
	},
	{ "country_code": "MM", "lat": 22, "lng": 98, "name": "Myanmar" },
	{ "country_code": "ME", "lat": 42.5, "lng": 19.3, "name": "Montenegro" },
	{ "country_code": "MN", "lat": 46, "lng": 105, "name": "Mongolia" },
	{
		"country_code": "MP",
		"lat": 15.2,
		"lng": 145.75,
		"name": "Northern Mariana Islands"
	},
	{ "country_code": "MZ", "lat": -18.25, "lng": 35, "name": "Mozambique" },
	{ "country_code": "MR", "lat": 20, "lng": -12, "name": "Mauritania" },
	{ "country_code": "MS", "lat": 16.75, "lng": -62.2, "name": "Montserrat" },
	{
		"country_code": "MQ",
		"lat": 14.666667,
		"lng": -61,
		"name": "Martinique"
	},
	{
		"country_code": "MU",
		"lat": -20.28333333,
		"lng": 57.55,
		"name": "Mauritius"
	},
	{ "country_code": "MW", "lat": -13.5, "lng": 34, "name": "Malawi" },
	{ "country_code": "MY", "lat": 2.5, "lng": 112.5, "name": "Malaysia" },
	{
		"country_code": "YT",
		"lat": -12.83333333,
		"lng": 45.16666666,
		"name": "Mayotte"
	},
	{ "country_code": "NA", "lat": -22, "lng": 17, "name": "Namibia" },
	{
		"country_code": "NC",
		"lat": -21.5,
		"lng": 165.5,
		"name": "New Caledonia"
	},
	{ "country_code": "NE", "lat": 16, "lng": 8, "name": "Niger" },
	{
		"country_code": "NF",
		"lat": -29.03333333,
		"lng": 167.95,
		"name": "Norfolk Island"
	},
	{ "country_code": "NG", "lat": 10, "lng": 8, "name": "Nigeria" },
	{ "country_code": "NI", "lat": 13, "lng": -85, "name": "Nicaragua" },
	{
		"country_code": "NU",
		"lat": -19.03333333,
		"lng": -169.86666666,
		"name": "Niue"
	},
	{ "country_code": "NL", "lat": 52.5, "lng": 5.75, "name": "Netherlands" },
	{ "country_code": "NO", "lat": 62, "lng": 10, "name": "Norway" },
	{ "country_code": "NP", "lat": 28, "lng": 84, "name": "Nepal" },
	{
		"country_code": "NR",
		"lat": -0.53333333,
		"lng": 166.91666666,
		"name": "Nauru"
	},
	{ "country_code": "NZ", "lat": -41, "lng": 174, "name": "New Zealand" },
	{ "country_code": "OM", "lat": 21, "lng": 57, "name": "Oman" },
	{ "country_code": "PK", "lat": 30, "lng": 70, "name": "Pakistan" },
	{ "country_code": "PA", "lat": 9, "lng": -80, "name": "Panama" },
	{
		"country_code": "PN",
		"lat": -25.06666666,
		"lng": -130.1,
		"name": "Pitcairn Islands"
	},
	{ "country_code": "PE", "lat": -10, "lng": -76, "name": "Peru" },
	{ "country_code": "PH", "lat": 13, "lng": 122, "name": "Philippines" },
	{ "country_code": "PW", "lat": 7.5, "lng": 134.5, "name": "Palau" },
	{ "country_code": "PG", "lat": -6, "lng": 147, "name": "Papua New Guinea" },
	{ "country_code": "PL", "lat": 52, "lng": 20, "name": "Poland" },
	{ "country_code": "PR", "lat": 18.25, "lng": -66.5, "name": "Puerto Rico" },
	{ "country_code": "KP", "lat": 40, "lng": 127, "name": "North Korea" },
	{ "country_code": "PT", "lat": 39.5, "lng": -8, "name": "Portugal" },
	{ "country_code": "PY", "lat": -23, "lng": -58, "name": "Paraguay" },
	{ "country_code": "PS", "lat": 31.9, "lng": 35.2, "name": "Palestine" },
	{
		"country_code": "PF",
		"lat": -15,
		"lng": -140,
		"name": "French Polynesia"
	},
	{ "country_code": "QA", "lat": 25.5, "lng": 51.25, "name": "Qatar" },
	{
		"country_code": "RE",
		"lat": -21.15,
		"lng": 55.5,
		"name": "R\u00e9union"
	},
	{ "country_code": "RO", "lat": 46, "lng": 25, "name": "Romania" },
	{ "country_code": "RU", "lat": 60, "lng": 100, "name": "Russia" },
	{ "country_code": "RW", "lat": -2, "lng": 30, "name": "Rwanda" },
	{ "country_code": "SA", "lat": 25, "lng": 45, "name": "Saudi Arabia" },
	{ "country_code": "SD", "lat": 15, "lng": 30, "name": "Sudan" },
	{ "country_code": "SN", "lat": 14, "lng": -14, "name": "Senegal" },
	{
		"country_code": "SG",
		"lat": 1.36666666,
		"lng": 103.8,
		"name": "Singapore"
	},
	{ "country_code": "GS", "lat": -54.5, "lng": -37, "name": "South Georgia" },
	{
		"country_code": "SJ",
		"lat": 78,
		"lng": 20,
		"name": "Svalbard and Jan Mayen"
	},
	{ "country_code": "SB", "lat": -8, "lng": 159, "name": "Solomon Islands" },
	{ "country_code": "SL", "lat": 8.5, "lng": -11.5, "name": "Sierra Leone" },
	{
		"country_code": "SV",
		"lat": 13.83333333,
		"lng": -88.91666666,
		"name": "El Salvador"
	},
	{
		"country_code": "SM",
		"lat": 43.76666666,
		"lng": 12.41666666,
		"name": "San Marino"
	},
	{ "country_code": "SO", "lat": 10, "lng": 49, "name": "Somalia" },
	{
		"country_code": "PM",
		"lat": 46.83333333,
		"lng": -56.33333333,
		"name": "Saint Pierre and Miquelon"
	},
	{ "country_code": "RS", "lat": 44, "lng": 21, "name": "Serbia" },
	{ "country_code": "SS", "lat": 7, "lng": 30, "name": "South Sudan" },
	{
		"country_code": "ST",
		"lat": 1,
		"lng": 7,
		"name": "S\u00e3o Tom\u00e9 and Pr\u00edncipe"
	},
	{ "country_code": "SR", "lat": 4, "lng": -56, "name": "Suriname" },
	{
		"country_code": "SK",
		"lat": 48.66666666,
		"lng": 19.5,
		"name": "Slovakia"
	},
	{
		"country_code": "SI",
		"lat": 46.11666666,
		"lng": 14.81666666,
		"name": "Slovenia"
	},
	{ "country_code": "SE", "lat": 62, "lng": 15, "name": "Sweden" },
	{ "country_code": "SZ", "lat": -26.5, "lng": 31.5, "name": "Swaziland" },
	{
		"country_code": "SX",
		"lat": 18.033333,
		"lng": -63.05,
		"name": "Sint Maarten"
	},
	{
		"country_code": "SC",
		"lat": -4.58333333,
		"lng": 55.66666666,
		"name": "Seychelles"
	},
	{ "country_code": "SY", "lat": 35, "lng": 38, "name": "Syria" },
	{
		"country_code": "TC",
		"lat": 21.75,
		"lng": -71.58333333,
		"name": "Turks and Caicos Islands"
	},
	{ "country_code": "TD", "lat": 15, "lng": 19, "name": "Chad" },
	{ "country_code": "TG", "lat": 8, "lng": 1.16666666, "name": "Togo" },
	{ "country_code": "TH", "lat": 15, "lng": 100, "name": "Thailand" },
	{ "country_code": "TJ", "lat": 39, "lng": 71, "name": "Tajikistan" },
	{ "country_code": "TK", "lat": -9, "lng": -172, "name": "Tokelau" },
	{ "country_code": "TM", "lat": 40, "lng": 60, "name": "Turkmenistan" },
	{
		"country_code": "TL",
		"lat": -8.83333333,
		"lng": 125.91666666,
		"name": "Timor-Leste"
	},
	{ "country_code": "TO", "lat": -20, "lng": -175, "name": "Tonga" },
	{
		"country_code": "TT",
		"lat": 11,
		"lng": -61,
		"name": "Trinidad and Tobago"
	},
	{ "country_code": "TN", "lat": 34, "lng": 9, "name": "Tunisia" },
	{ "country_code": "TR", "lat": 39, "lng": 35, "name": "Turkey" },
	{ "country_code": "TV", "lat": -8, "lng": 178, "name": "Tuvalu" },
	{ "country_code": "TW", "lat": 23.5, "lng": 121, "name": "Taiwan" },
	{ "country_code": "TZ", "lat": -6, "lng": 35, "name": "Tanzania" },
	{ "country_code": "UG", "lat": 1, "lng": 32, "name": "Uganda" },
	{ "country_code": "UA", "lat": 49, "lng": 32, "name": "Ukraine" },
	{
		"country_code": "UM",
		"lat": 19.2911437,
		"lng": 166.618332,
		"name": "United States Minor Outlying Islands"
	},
	{ "country_code": "UY", "lat": -33, "lng": -56, "name": "Uruguay" },
	{ "country_code": "US", "lat": 38, "lng": -97, "name": "United States" },
	{ "country_code": "UZ", "lat": 41, "lng": 64, "name": "Uzbekistan" },
	{ "country_code": "VA", "lat": 41.9, "lng": 12.45, "name": "Vatican City" },
	{
		"country_code": "VC",
		"lat": 13.25,
		"lng": -61.2,
		"name": "Saint Vincent and the Grenadines"
	},
	{ "country_code": "VE", "lat": 8, "lng": -66, "name": "Venezuela" },
	{
		"country_code": "VG",
		"lat": 18.431383,
		"lng": -64.62305,
		"name": "British Virgin Islands"
	},
	{
		"country_code": "VI",
		"lat": 18.35,
		"lng": -64.933333,
		"name": "United States Virgin Islands"
	},
	{
		"country_code": "VN",
		"lat": 16.16666666,
		"lng": 107.83333333,
		"name": "Vietnam"
	},
	{ "country_code": "VU", "lat": -16, "lng": 167, "name": "Vanuatu" },
	{
		"country_code": "WF",
		"lat": -13.3,
		"lng": -176.2,
		"name": "Wallis and Futuna"
	},
	{
		"country_code": "WS",
		"lat": -13.58333333,
		"lng": -172.33333333,
		"name": "Samoa"
	},
	{ "country_code": "YE", "lat": 15, "lng": 48, "name": "Yemen" },
	{ "country_code": "ZA", "lat": -29, "lng": 24, "name": "South Africa" },
	{ "country_code": "ZM", "lat": -15, "lng": 30, "name": "Zambia" },
	{ "country_code": "ZW", "lat": -20, "lng": 30, "name": "Zimbabwe" }
]
