{"AW":{"lat":12.5,"lng":-69.96666666,"name":"Aruba","capital":"Oranjestad","tz":"America\/Aruba"},"AF":{"lat":33,"lng":65,"name":"Afghanistan","capital":"Kabul","tz":"Asia\/Kabul"},"AO":{"lat":-12.5,"lng":18.5,"name":"Angola","capital":"Luanda","tz":"Africa\/Luanda"},"AI":{"lat":18.25,"lng":-63.16666666,"name":"Anguilla","capital":"The Valley","tz":"America\/Anguilla"},"AX":{"lat":60.116667,"lng":19.9,"name":"Åland Islands","capital":"Mariehamn","tz":"Europe\/Mariehamn"},"AL":{"lat":41,"lng":20,"name":"Albania","capital":"Tirana","tz":"Europe\/Tirane"},"AD":{"lat":42.5,"lng":1.5,"name":"Andorra","capital":"Andorra la Vella","tz":"Europe\/Andorra"},"AE":{"lat":24,"lng":54,"name":"United Arab Emirates","capital":"Abu Dhabi","tz":"Asia\/Dubai"},"AR":{"lat":-34,"lng":-64,"name":"Argentina","capital":"Buenos Aires","tz":"America\/Argentina\/Buenos_Aires"},"AM":{"lat":40,"lng":45,"name":"Armenia","capital":"Yerevan","tz":"Asia\/Yerevan"},"AS":{"lat":-14.33333333,"lng":-170,"name":"American Samoa","capital":"Pago Pago","tz":"Pacific\/Pago_Pago"},"AQ":{"lat":-90,"lng":0,"name":"Antarctica","capital":null,"tz":"Antarctica\/McMurdo"},"TF":{"lat":-49.25,"lng":69.167,"name":"French Southern and Antarctic Lands","capital":"Port-aux-Français","tz":"Indian\/Kerguelen"},"AG":{"lat":17.05,"lng":-61.8,"name":"Antigua and Barbuda","capital":"Saint John's","tz":"America\/Antigua"},"AU":{"lat":-27,"lng":133,"name":"Australia","capital":"Canberra","tz":"Australia\/Lord_Howe"},"AT":{"lat":47.33333333,"lng":13.33333333,"name":"Austria","capital":"Vienna","tz":"Europe\/Vienna"},"AZ":{"lat":40.5,"lng":47.5,"name":"Azerbaijan","capital":"Baku","tz":"Asia\/Baku"},"BI":{"lat":-3.5,"lng":30,"name":"Burundi","capital":"Bujumbura","tz":"Africa\/Bujumbura"},"BE":{"lat":50.83333333,"lng":4,"name":"Belgium","capital":"Brussels","tz":"Europe\/Brussels"},"BJ":{"lat":9.5,"lng":2.25,"name":"Benin","capital":"Porto-Novo","tz":"Africa\/Porto-Novo"},"BF":{"lat":13,"lng":-2,"name":"Burkina Faso","capital":"Ouagadougou","tz":"Africa\/Ouagadougou"},"BD":{"lat":24,"lng":90,"name":"Bangladesh","capital":"Dhaka","tz":"Asia\/Dhaka"},"BG":{"lat":43,"lng":25,"name":"Bulgaria","capital":"Sofia","tz":"Europe\/Sofia"},"BH":{"lat":26,"lng":50.55,"name":"Bahrain","capital":"Manama","tz":"Asia\/Bahrain"},"BS":{"lat":24.25,"lng":-76,"name":"Bahamas","capital":"Nassau","tz":"America\/Nassau"},"BA":{"lat":44,"lng":18,"name":"Bosnia and Herzegovina","capital":"Sarajevo","tz":"Europe\/Sarajevo"},"BL":{"lat":18.5,"lng":-63.41666666,"name":"Saint Barthélemy","capital":"Gustavia","tz":"America\/St_Barthelemy"},"BY":{"lat":53,"lng":28,"name":"Belarus","capital":"Minsk","tz":"Europe\/Minsk"},"BZ":{"lat":17.25,"lng":-88.75,"name":"Belize","capital":"Belmopan","tz":"America\/Belize"},"BM":{"lat":32.33333333,"lng":-64.75,"name":"Bermuda","capital":"Hamilton","tz":"Atlantic\/Bermuda"},"BO":{"lat":-17,"lng":-65,"name":"Bolivia","capital":"Sucre","tz":"America\/La_Paz"},"BR":{"lat":-10,"lng":-55,"name":"Brazil","capital":"Brasília","tz":"America\/Noronha"},"BB":{"lat":13.16666666,"lng":-59.53333333,"name":"Barbados","capital":"Bridgetown","tz":"America\/Barbados"},"BN":{"lat":4.5,"lng":114.66666666,"name":"Brunei","capital":"Bandar Seri Begawan","tz":"Asia\/Brunei"},"BT":{"lat":27.5,"lng":90.5,"name":"Bhutan","capital":"Thimphu","tz":"Asia\/Thimphu"},"BV":{"lat":-54.43333333,"lng":3.4,"name":"Bouvet Island","capital":null,"tz":"Europe\/Oslo"},"BW":{"lat":-22,"lng":24,"name":"Botswana","capital":"Gaborone","tz":"Africa\/Gaborone"},"CF":{"lat":7,"lng":21,"name":"Central African Republic","capital":"Bangui","tz":"Africa\/Bangui"},"CA":{"lat":60,"lng":-95,"name":"Canada","capital":"Ottawa","tz":"America\/St_Johns"},"CC":{"lat":-12.5,"lng":96.83333333,"name":"Cocos (Keeling) Islands","capital":"West Island","tz":"Indian\/Cocos"},"CH":{"lat":47,"lng":8,"name":"Switzerland","capital":"Bern","tz":"Europe\/Zurich"},"CL":{"lat":-30,"lng":-71,"name":"Chile","capital":"Santiago","tz":"America\/Santiago"},"CN":{"lat":35,"lng":105,"name":"China","capital":"Beijing","tz":"Asia\/Shanghai"},"CI":{"lat":8,"lng":-5,"name":"Ivory Coast","capital":"Yamoussoukro","tz":"Africa\/Abidjan"},"CM":{"lat":6,"lng":12,"name":"Cameroon","capital":"Yaoundé","tz":"Africa\/Douala"},"CD":{"lat":0,"lng":25,"name":"DR Congo","capital":"Kinshasa","tz":"Africa\/Kinshasa"},"CG":{"lat":-1,"lng":15,"name":"Republic of the Congo","capital":"Brazzaville","tz":"Africa\/Brazzaville"},"CK":{"lat":-21.23333333,"lng":-159.76666666,"name":"Cook Islands","capital":"Avarua","tz":"Pacific\/Rarotonga"},"CO":{"lat":4,"lng":-72,"name":"Colombia","capital":"Bogotá","tz":"America\/Bogota"},"KM":{"lat":-12.16666666,"lng":44.25,"name":"Comoros","capital":"Moroni","tz":"Indian\/Comoro"},"CV":{"lat":16,"lng":-24,"name":"Cape Verde","capital":"Praia","tz":"Atlantic\/Cape_Verde"},"CR":{"lat":10,"lng":-84,"name":"Costa Rica","capital":"San José","tz":"America\/Costa_Rica"},"CU":{"lat":21.5,"lng":-80,"name":"Cuba","capital":"Havana","tz":"America\/Havana"},"CW":{"lat":12.116667,"lng":-68.933333,"name":"Curaçao","capital":"Willemstad","tz":"America\/Curacao"},"CX":{"lat":-10.5,"lng":105.66666666,"name":"Christmas Island","capital":"Flying Fish Cove","tz":"Indian\/Christmas"},"KY":{"lat":19.5,"lng":-80.5,"name":"Cayman Islands","capital":"George Town","tz":"America\/Cayman"},"CY":{"lat":35,"lng":33,"name":"Cyprus","capital":"Nicosia","tz":"Asia\/Nicosia"},"CZ":{"lat":49.75,"lng":15.5,"name":"Czech Republic","capital":"Prague","tz":"Europe\/Prague"},"DE":{"lat":51,"lng":9,"name":"Germany","capital":"Berlin","tz":"Europe\/Berlin"},"DJ":{"lat":11.5,"lng":43,"name":"Djibouti","capital":"Djibouti","tz":"Africa\/Djibouti"},"DM":{"lat":15.41666666,"lng":-61.33333333,"name":"Dominica","capital":"Roseau","tz":"America\/Dominica"},"DK":{"lat":56,"lng":10,"name":"Denmark","capital":"Copenhagen","tz":"Europe\/Copenhagen"},"DO":{"lat":19,"lng":-70.66666666,"name":"Dominican Republic","capital":"Santo Domingo","tz":"America\/Santo_Domingo"},"DZ":{"lat":28,"lng":3,"name":"Algeria","capital":"Algiers","tz":"Africa\/Algiers"},"EC":{"lat":-2,"lng":-77.5,"name":"Ecuador","capital":"Quito","tz":"America\/Guayaquil"},"EG":{"lat":27,"lng":30,"name":"Egypt","capital":"Cairo","tz":"Africa\/Cairo"},"ER":{"lat":15,"lng":39,"name":"Eritrea","capital":"Asmara","tz":"Africa\/Asmara"},"EH":{"lat":24.5,"lng":-13,"name":"Western Sahara","capital":"El Aaiún","tz":"Africa\/El_Aaiun"},"ES":{"lat":40,"lng":-4,"name":"Spain","capital":"Madrid","tz":"Europe\/Madrid"},"EE":{"lat":59,"lng":26,"name":"Estonia","capital":"Tallinn","tz":"Europe\/Tallinn"},"ET":{"lat":8,"lng":38,"name":"Ethiopia","capital":"Addis Ababa","tz":"Africa\/Addis_Ababa"},"FI":{"lat":64,"lng":26,"name":"Finland","capital":"Helsinki","tz":"Europe\/Helsinki"},"FJ":{"lat":-18,"lng":175,"name":"Fiji","capital":"Suva","tz":"Pacific\/Fiji"},"FK":{"lat":-51.75,"lng":-59,"name":"Falkland Islands","capital":"Stanley","tz":"Atlantic\/Stanley"},"FR":{"lat":46,"lng":2,"name":"France","capital":"Paris","tz":"Europe\/Paris"},"FO":{"lat":62,"lng":-7,"name":"Faroe Islands","capital":"Tórshavn","tz":"Atlantic\/Faroe"},"FM":{"lat":6.91666666,"lng":158.25,"name":"Micronesia","capital":"Palikir","tz":"Pacific\/Chuuk"},"GA":{"lat":-1,"lng":11.75,"name":"Gabon","capital":"Libreville","tz":"Africa\/Libreville"},"GB":{"lat":54,"lng":-2,"name":"United Kingdom","capital":"London","tz":"Europe\/London"},"GE":{"lat":42,"lng":43.5,"name":"Georgia","capital":"Tbilisi","tz":"Asia\/Tbilisi"},"GG":{"lat":49.46666666,"lng":-2.58333333,"name":"Guernsey","capital":"St. Peter Port","tz":"Europe\/Guernsey"},"GH":{"lat":8,"lng":-2,"name":"Ghana","capital":"Accra","tz":"Africa\/Accra"},"GI":{"lat":36.13333333,"lng":-5.35,"name":"Gibraltar","capital":"Gibraltar","tz":"Europe\/Gibraltar"},"GN":{"lat":11,"lng":-10,"name":"Guinea","capital":"Conakry","tz":"Africa\/Conakry"},"GP":{"lat":16.25,"lng":-61.583333,"name":"Guadeloupe","capital":"Basse-Terre","tz":"America\/Guadeloupe"},"GM":{"lat":13.46666666,"lng":-16.56666666,"name":"Gambia","capital":"Banjul","tz":"Africa\/Banjul"},"GW":{"lat":12,"lng":-15,"name":"Guinea-Bissau","capital":"Bissau","tz":"Africa\/Bissau"},"GQ":{"lat":2,"lng":10,"name":"Equatorial Guinea","capital":"Malabo","tz":"Africa\/Malabo"},"GR":{"lat":39,"lng":22,"name":"Greece","capital":"Athens","tz":"Europe\/Athens"},"GD":{"lat":12.11666666,"lng":-61.66666666,"name":"Grenada","capital":"St. George's","tz":"America\/Grenada"},"GL":{"lat":72,"lng":-40,"name":"Greenland","capital":"Nuuk","tz":"America\/Godthab"},"GT":{"lat":15.5,"lng":-90.25,"name":"Guatemala","capital":"Guatemala City","tz":"America\/Guatemala"},"GF":{"lat":4,"lng":-53,"name":"French Guiana","capital":"Cayenne","tz":"America\/Cayenne"},"GU":{"lat":13.46666666,"lng":144.78333333,"name":"Guam","capital":"Hagåtña","tz":"Pacific\/Guam"},"GY":{"lat":5,"lng":-59,"name":"Guyana","capital":"Georgetown","tz":"America\/Guyana"},"HK":{"lat":22.267,"lng":114.188,"name":"Hong Kong","capital":"City of Victoria","tz":"Asia\/Hong_Kong"},"HN":{"lat":15,"lng":-86.5,"name":"Honduras","capital":"Tegucigalpa","tz":"America\/Tegucigalpa"},"HR":{"lat":45.16666666,"lng":15.5,"name":"Croatia","capital":"Zagreb","tz":"Europe\/Zagreb"},"HT":{"lat":19,"lng":-72.41666666,"name":"Haiti","capital":"Port-au-Prince","tz":"America\/Port-au-Prince"},"HU":{"lat":47,"lng":20,"name":"Hungary","capital":"Budapest","tz":"Europe\/Budapest"},"ID":{"lat":-5,"lng":120,"name":"Indonesia","capital":"Jakarta","tz":"Asia\/Jakarta"},"IM":{"lat":54.25,"lng":-4.5,"name":"Isle of Man","capital":"Douglas","tz":"Europe\/Isle_of_Man"},"IN":{"lat":20,"lng":77,"name":"India","capital":"New Delhi","tz":"Asia\/Kolkata"},"IO":{"lat":-6,"lng":71.5,"name":"British Indian Ocean Territory","capital":"Diego Garcia","tz":"Indian\/Chagos"},"IE":{"lat":53,"lng":-8,"name":"Ireland","capital":"Dublin","tz":"Europe\/Dublin"},"IR":{"lat":32,"lng":53,"name":"Iran","capital":"Tehran","tz":"Asia\/Tehran"},"IQ":{"lat":33,"lng":44,"name":"Iraq","capital":"Baghdad","tz":"Asia\/Baghdad"},"IS":{"lat":65,"lng":-18,"name":"Iceland","capital":"Reykjavik","tz":"Atlantic\/Reykjavik"},"IL":{"lat":31.47,"lng":35.13,"name":"Israel","capital":"Jerusalem","tz":"Asia\/Jerusalem"},"IT":{"lat":42.83333333,"lng":12.83333333,"name":"Italy","capital":"Rome","tz":"Europe\/Rome"},"JM":{"lat":18.25,"lng":-77.5,"name":"Jamaica","capital":"Kingston","tz":"America\/Jamaica"},"JE":{"lat":49.25,"lng":-2.16666666,"name":"Jersey","capital":"Saint Helier","tz":"Europe\/Jersey"},"JO":{"lat":31,"lng":36,"name":"Jordan","capital":"Amman","tz":"Asia\/Amman"},"JP":{"lat":36,"lng":138,"name":"Japan","capital":"Tokyo","tz":"Asia\/Tokyo"},"KZ":{"lat":48,"lng":68,"name":"Kazakhstan","capital":"Astana","tz":"Asia\/Almaty"},"KE":{"lat":1,"lng":38,"name":"Kenya","capital":"Nairobi","tz":"Africa\/Nairobi"},"KG":{"lat":41,"lng":75,"name":"Kyrgyzstan","capital":"Bishkek","tz":"Asia\/Bishkek"},"KH":{"lat":13,"lng":105,"name":"Cambodia","capital":"Phnom Penh","tz":"Asia\/Phnom_Penh"},"KI":{"lat":1.41666666,"lng":173,"name":"Kiribati","capital":"South Tarawa","tz":"Pacific\/Tarawa"},"KN":{"lat":17.33333333,"lng":-62.75,"name":"Saint Kitts and Nevis","capital":"Basseterre","tz":"America\/St_Kitts"},"KR":{"lat":37,"lng":127.5,"name":"South Korea","capital":"Seoul","tz":"Asia\/Seoul"},"XK":{"lat":42.666667,"lng":21.166667,"name":"Kosovo","capital":"Pristina","tz":"Europe\/Belgrade"},"KW":{"lat":29.5,"lng":45.75,"name":"Kuwait","capital":"Kuwait City","tz":"Asia\/Kuwait"},"LA":{"lat":18,"lng":105,"name":"Laos","capital":"Vientiane","tz":"Asia\/Vientiane"},"LB":{"lat":33.83333333,"lng":35.83333333,"name":"Lebanon","capital":"Beirut","tz":"Asia\/Beirut"},"LR":{"lat":6.5,"lng":-9.5,"name":"Liberia","capital":"Monrovia","tz":"Africa\/Monrovia"},"LY":{"lat":25,"lng":17,"name":"Libya","capital":"Tripoli","tz":"Africa\/Tripoli"},"LC":{"lat":13.88333333,"lng":-60.96666666,"name":"Saint Lucia","capital":"Castries","tz":"America\/St_Lucia"},"LI":{"lat":47.26666666,"lng":9.53333333,"name":"Liechtenstein","capital":"Vaduz","tz":"Europe\/Vaduz"},"LK":{"lat":7,"lng":81,"name":"Sri Lanka","capital":"Colombo","tz":"Asia\/Colombo"},"LS":{"lat":-29.5,"lng":28.5,"name":"Lesotho","capital":"Maseru","tz":"Africa\/Maseru"},"LT":{"lat":56,"lng":24,"name":"Lithuania","capital":"Vilnius","tz":"Europe\/Vilnius"},"LU":{"lat":49.75,"lng":6.16666666,"name":"Luxembourg","capital":"Luxembourg","tz":"Europe\/Luxembourg"},"LV":{"lat":57,"lng":25,"name":"Latvia","capital":"Riga","tz":"Europe\/Riga"},"MO":{"lat":22.16666666,"lng":113.55,"name":"Macau","capital":null,"tz":"Asia\/Macau"},"MF":{"lat":18.08333333,"lng":-63.95,"name":"Saint Martin","capital":"Marigot","tz":"America\/Marigot"},"MA":{"lat":32,"lng":-5,"name":"Morocco","capital":"Rabat","tz":"Africa\/Casablanca"},"MC":{"lat":43.73333333,"lng":7.4,"name":"Monaco","capital":"Monaco","tz":"Europe\/Monaco"},"MD":{"lat":47,"lng":29,"name":"Moldova","capital":"Chișinău","tz":"Europe\/Chisinau"},"MG":{"lat":-20,"lng":47,"name":"Madagascar","capital":"Antananarivo","tz":"Indian\/Antananarivo"},"MV":{"lat":3.25,"lng":73,"name":"Maldives","capital":"Malé","tz":"Indian\/Maldives"},"MX":{"lat":23,"lng":-102,"name":"Mexico","capital":"Mexico City","tz":"America\/Mexico_City"},"MH":{"lat":9,"lng":168,"name":"Marshall Islands","capital":"Majuro","tz":"Pacific\/Majuro"},"MK":{"lat":41.83333333,"lng":22,"name":"Macedonia","capital":"Skopje","tz":"Europe\/Skopje"},"ML":{"lat":17,"lng":-4,"name":"Mali","capital":"Bamako","tz":"Africa\/Bamako"},"MT":{"lat":35.83333333,"lng":14.58333333,"name":"Malta","capital":"Valletta","tz":"Europe\/Malta"},"MM":{"lat":22,"lng":98,"name":"Myanmar","capital":"Naypyidaw","tz":"Asia\/Rangoon"},"ME":{"lat":42.5,"lng":19.3,"name":"Montenegro","capital":"Podgorica","tz":"Europe\/Podgorica"},"MN":{"lat":46,"lng":105,"name":"Mongolia","capital":"Ulan Bator","tz":"Asia\/Ulaanbaatar"},"MP":{"lat":15.2,"lng":145.75,"name":"Northern Mariana Islands","capital":"Saipan","tz":"Pacific\/Saipan"},"MZ":{"lat":-18.25,"lng":35,"name":"Mozambique","capital":"Maputo","tz":"Africa\/Maputo"},"MR":{"lat":20,"lng":-12,"name":"Mauritania","capital":"Nouakchott","tz":"Africa\/Nouakchott"},"MS":{"lat":16.75,"lng":-62.2,"name":"Montserrat","capital":"Plymouth","tz":"America\/Montserrat"},"MQ":{"lat":14.666667,"lng":-61,"name":"Martinique","capital":"Fort-de-France","tz":"America\/Martinique"},"MU":{"lat":-20.28333333,"lng":57.55,"name":"Mauritius","capital":"Port Louis","tz":"Indian\/Mauritius"},"MW":{"lat":-13.5,"lng":34,"name":"Malawi","capital":"Lilongwe","tz":"Africa\/Blantyre"},"MY":{"lat":2.5,"lng":112.5,"name":"Malaysia","capital":"Kuala Lumpur","tz":"Asia\/Kuala_Lumpur"},"YT":{"lat":-12.83333333,"lng":45.16666666,"name":"Mayotte","capital":"Mamoudzou","tz":"Indian\/Mayotte"},"NA":{"lat":-22,"lng":17,"name":"Namibia","capital":"Windhoek","tz":"Africa\/Windhoek"},"NC":{"lat":-21.5,"lng":165.5,"name":"New Caledonia","capital":"Nouméa","tz":"Pacific\/Noumea"},"NE":{"lat":16,"lng":8,"name":"Niger","capital":"Niamey","tz":"Africa\/Niamey"},"NF":{"lat":-29.03333333,"lng":167.95,"name":"Norfolk Island","capital":"Kingston","tz":"Pacific\/Norfolk"},"NG":{"lat":10,"lng":8,"name":"Nigeria","capital":"Abuja","tz":"Africa\/Lagos"},"NI":{"lat":13,"lng":-85,"name":"Nicaragua","capital":"Managua","tz":"America\/Managua"},"NU":{"lat":-19.03333333,"lng":-169.86666666,"name":"Niue","capital":"Alofi","tz":"Pacific\/Niue"},"NL":{"lat":52.5,"lng":5.75,"name":"Netherlands","capital":"Amsterdam","tz":"Europe\/Amsterdam"},"NO":{"lat":62,"lng":10,"name":"Norway","capital":"Oslo","tz":"Europe\/Oslo"},"NP":{"lat":28,"lng":84,"name":"Nepal","capital":"Kathmandu","tz":"Asia\/Kathmandu"},"NR":{"lat":-0.53333333,"lng":166.91666666,"name":"Nauru","capital":"Yaren","tz":"Pacific\/Nauru"},"NZ":{"lat":-41,"lng":174,"name":"New Zealand","capital":"Wellington","tz":"Pacific\/Auckland"},"OM":{"lat":21,"lng":57,"name":"Oman","capital":"Muscat","tz":"Asia\/Muscat"},"PK":{"lat":30,"lng":70,"name":"Pakistan","capital":"Islamabad","tz":"Asia\/Karachi"},"PA":{"lat":9,"lng":-80,"name":"Panama","capital":"Panama City","tz":"America\/Panama"},"PN":{"lat":-25.06666666,"lng":-130.1,"name":"Pitcairn Islands","capital":"Adamstown","tz":"Pacific\/Pitcairn"},"PE":{"lat":-10,"lng":-76,"name":"Peru","capital":"Lima","tz":"America\/Lima"},"PH":{"lat":13,"lng":122,"name":"Philippines","capital":"Manila","tz":"Asia\/Manila"},"PW":{"lat":7.5,"lng":134.5,"name":"Palau","capital":"Ngerulmud","tz":"Pacific\/Palau"},"PG":{"lat":-6,"lng":147,"name":"Papua New Guinea","capital":"Port Moresby","tz":"Pacific\/Port_Moresby"},"PL":{"lat":52,"lng":20,"name":"Poland","capital":"Warsaw","tz":"Europe\/Warsaw"},"PR":{"lat":18.25,"lng":-66.5,"name":"Puerto Rico","capital":"San Juan","tz":"America\/Puerto_Rico"},"KP":{"lat":40,"lng":127,"name":"North Korea","capital":"Pyongyang","tz":"Asia\/Pyongyang"},"PT":{"lat":39.5,"lng":-8,"name":"Portugal","capital":"Lisbon","tz":"Europe\/Lisbon"},"PY":{"lat":-23,"lng":-58,"name":"Paraguay","capital":"Asunción","tz":"America\/Asuncion"},"PS":{"lat":31.9,"lng":35.2,"name":"Palestine","capital":"Ramallah","tz":"Asia\/Gaza"},"PF":{"lat":-15,"lng":-140,"name":"French Polynesia","capital":"Papeetē","tz":"Pacific\/Tahiti"},"QA":{"lat":25.5,"lng":51.25,"name":"Qatar","capital":"Doha","tz":"Asia\/Qatar"},"RE":{"lat":-21.15,"lng":55.5,"name":"Réunion","capital":"Saint-Denis","tz":"Indian\/Reunion"},"RO":{"lat":46,"lng":25,"name":"Romania","capital":"Bucharest","tz":"Europe\/Bucharest"},"RU":{"lat":60,"lng":100,"name":"Russia","capital":"Moscow","tz":"Europe\/Kaliningrad"},"RW":{"lat":-2,"lng":30,"name":"Rwanda","capital":"Kigali","tz":"Africa\/Kigali"},"SA":{"lat":25,"lng":45,"name":"Saudi Arabia","capital":"Riyadh","tz":"Asia\/Riyadh"},"SD":{"lat":15,"lng":30,"name":"Sudan","capital":"Khartoum","tz":"Africa\/Khartoum"},"SN":{"lat":14,"lng":-14,"name":"Senegal","capital":"Dakar","tz":"Africa\/Dakar"},"SG":{"lat":1.36666666,"lng":103.8,"name":"Singapore","capital":"Singapore","tz":"Asia\/Singapore"},"GS":{"lat":-54.5,"lng":-37,"name":"South Georgia","capital":"King Edward Point","tz":"Atlantic\/South_Georgia"},"SJ":{"lat":78,"lng":20,"name":"Svalbard and Jan Mayen","capital":"Longyearbyen","tz":"Arctic\/Longyearbyen"},"SB":{"lat":-8,"lng":159,"name":"Solomon Islands","capital":"Honiara","tz":"Pacific\/Guadalcanal"},"SL":{"lat":8.5,"lng":-11.5,"name":"Sierra Leone","capital":"Freetown","tz":"Africa\/Freetown"},"SV":{"lat":13.83333333,"lng":-88.91666666,"name":"El Salvador","capital":"San Salvador","tz":"America\/El_Salvador"},"SM":{"lat":43.76666666,"lng":12.41666666,"name":"San Marino","capital":"City of San Marino","tz":"Europe\/San_Marino"},"SO":{"lat":10,"lng":49,"name":"Somalia","capital":"Mogadishu","tz":"Africa\/Mogadishu"},"PM":{"lat":46.83333333,"lng":-56.33333333,"name":"Saint Pierre and Miquelon","capital":"Saint-Pierre","tz":"America\/Miquelon"},"RS":{"lat":44,"lng":21,"name":"Serbia","capital":"Belgrade","tz":"Europe\/Belgrade"},"SS":{"lat":7,"lng":30,"name":"South Sudan","capital":"Juba","tz":"Africa\/Juba"},"ST":{"lat":1,"lng":7,"name":"São Tomé and Príncipe","capital":"São Tomé","tz":"Africa\/Sao_Tome"},"SR":{"lat":4,"lng":-56,"name":"Suriname","capital":"Paramaribo","tz":"America\/Paramaribo"},"SK":{"lat":48.66666666,"lng":19.5,"name":"Slovakia","capital":"Bratislava","tz":"Europe\/Bratislava"},"SI":{"lat":46.11666666,"lng":14.81666666,"name":"Slovenia","capital":"Ljubljana","tz":"Europe\/Ljubljana"},"SE":{"lat":62,"lng":15,"name":"Sweden","capital":"Stockholm","tz":"Europe\/Stockholm"},"SZ":{"lat":-26.5,"lng":31.5,"name":"Swaziland","capital":"Lobamba","tz":"Africa\/Mbabane"},"SX":{"lat":18.033333,"lng":-63.05,"name":"Sint Maarten","capital":"Philipsburg","tz":"America\/Lower_Princes"},"SC":{"lat":-4.58333333,"lng":55.66666666,"name":"Seychelles","capital":"Victoria","tz":"Indian\/Mahe"},"SY":{"lat":35,"lng":38,"name":"Syria","capital":"Damascus","tz":"Asia\/Damascus"},"TC":{"lat":21.75,"lng":-71.58333333,"name":"Turks and Caicos Islands","capital":"Cockburn Town","tz":"America\/Grand_Turk"},"TD":{"lat":15,"lng":19,"name":"Chad","capital":"N'Djamena","tz":"Africa\/Ndjamena"},"TG":{"lat":8,"lng":1.16666666,"name":"Togo","capital":"Lomé","tz":"Africa\/Lome"},"TH":{"lat":15,"lng":100,"name":"Thailand","capital":"Bangkok","tz":"Asia\/Bangkok"},"TJ":{"lat":39,"lng":71,"name":"Tajikistan","capital":"Dushanbe","tz":"Asia\/Dushanbe"},"TK":{"lat":-9,"lng":-172,"name":"Tokelau","capital":"Fakaofo","tz":"Pacific\/Fakaofo"},"TM":{"lat":40,"lng":60,"name":"Turkmenistan","capital":"Ashgabat","tz":"Asia\/Ashgabat"},"TL":{"lat":-8.83333333,"lng":125.91666666,"name":"Timor-Leste","capital":"Dili","tz":"Asia\/Dili"},"TO":{"lat":-20,"lng":-175,"name":"Tonga","capital":"Nuku'alofa","tz":"Pacific\/Tongatapu"},"TT":{"lat":11,"lng":-61,"name":"Trinidad and Tobago","capital":"Port of Spain","tz":"America\/Port_of_Spain"},"TN":{"lat":34,"lng":9,"name":"Tunisia","capital":"Tunis","tz":"Africa\/Tunis"},"TR":{"lat":39,"lng":35,"name":"Turkey","capital":"Ankara","tz":"Europe\/Istanbul"},"TV":{"lat":-8,"lng":178,"name":"Tuvalu","capital":"Funafuti","tz":"Pacific\/Funafuti"},"TW":{"lat":23.5,"lng":121,"name":"Taiwan","capital":"Taipei","tz":"Asia\/Taipei"},"TZ":{"lat":-6,"lng":35,"name":"Tanzania","capital":"Dodoma","tz":"Africa\/Dar_es_Salaam"},"UG":{"lat":1,"lng":32,"name":"Uganda","capital":"Kampala","tz":"Africa\/Kampala"},"UA":{"lat":49,"lng":32,"name":"Ukraine","capital":"Kiev","tz":"Europe\/Kiev"},"UM":{"lat":19.2911437,"lng":166.618332,"name":"United States Minor Outlying Islands","capital":null,"tz":"Pacific\/Johnston"},"UY":{"lat":-33,"lng":-56,"name":"Uruguay","capital":"Montevideo","tz":"America\/Montevideo"},"US":{"lat":38,"lng":-97,"name":"United States","capital":"Washington D.C.","tz":"America\/New_York"},"UZ":{"lat":41,"lng":64,"name":"Uzbekistan","capital":"Tashkent","tz":"Asia\/Samarkand"},"VA":{"lat":41.9,"lng":12.45,"name":"Vatican City","capital":"Vatican City","tz":"Europe\/Vatican"},"VC":{"lat":13.25,"lng":-61.2,"name":"Saint Vincent and the Grenadines","capital":"Kingstown","tz":"America\/St_Vincent"},"VE":{"lat":8,"lng":-66,"name":"Venezuela","capital":"Caracas","tz":"America\/Caracas"},"VG":{"lat":18.431383,"lng":-64.62305,"name":"British Virgin Islands","capital":"Road Town","tz":"America\/Tortola"},"VI":{"lat":18.35,"lng":-64.933333,"name":"United States Virgin Islands","capital":"Charlotte Amalie","tz":"America\/St_Thomas"},"VN":{"lat":16.16666666,"lng":107.83333333,"name":"Vietnam","capital":"Hanoi","tz":"Asia\/Ho_Chi_Minh"},"VU":{"lat":-16,"lng":167,"name":"Vanuatu","capital":"Port Vila","tz":"Pacific\/Efate"},"WF":{"lat":-13.3,"lng":-176.2,"name":"Wallis and Futuna","capital":"Mata-Utu","tz":"Pacific\/Wallis"},"WS":{"lat":-13.58333333,"lng":-172.33333333,"name":"Samoa","capital":"Apia","tz":"Pacific\/Apia"},"YE":{"lat":15,"lng":48,"name":"Yemen","capital":"Sana'a","tz":"Asia\/Aden"},"ZA":{"lat":-29,"lng":24,"name":"South Africa","capital":"Pretoria","tz":"Africa\/Johannesburg"},"ZM":{"lat":-15,"lng":30,"name":"Zambia","capital":"Lusaka","tz":"Africa\/Lusaka"},"ZW":{"lat":-20,"lng":30,"name":"Zimbabwe","capital":"Harare","tz":"Africa\/Harare"}}